id,name,address,lat,lng,disabled,diaper,hours,male_toilet,male_urinal,female_toilet,emergency_bell,cctv,data_date
pd-1,삼성산 화장실,경기도 안양시 만안구 석수동 산45-46,37.417494,126.913208,false,true,상시,1,1,3,false,false,2022-12-31
pd-2,삼막사초소 공중화장실,경기도 안양시 만안구 석수동 산14-4,37.436811,126.924458,false,true,상시,1,2,2,false,false,2022-12-31
pd-3,애향소공원 공중화장실,경기도 안양시 만안구 안양천서로 190,37.394322,126.937201,false,true,상시,1,2,2,true,true,2022-12-31
pd-4,신촌동 행정복지센터 화장실,경기도 안양시 동안구 동안로 28,37.38197,126.956442,true,true,09:00~18:00,4,7,10,true,false,2022-12-31
pd-5,평촌경영고 앞 공중화장실,경기도 안양시 동안구 학의로 191,37.4014187,126.9558329,false,true,상시,1,2,2,true,true,2022-12-31
pd-6,동안보건소 화장실,경기도 안양시 동안구 평촌대로253번길 41,37.392966,126.952042,true,true,09:00~18:00,8,8,12,true,false,2022-12-31
pd-7,부림동 행정복지센터 화장실,경기도 안양시 동안구 달안로 154,37.39882,126.9596,false,true,09:00~18:00,3,3,4,false,false,2022-12-31
pd-8,충훈2교하류 제방 공중화장실,경기도 안양시 만안구 석수로 159,37.40452127,126.896203,false,true,상시,1,1,2,true,true,2022-12-31
pd-9,호계3동 행정복지센터 화장실,경기도 안양시 동안구 경수대로 504,37.367629,126.9588204,true,true,08:00~20:00,10,8,18,false,false,2022-12-31
pd-10,호계1동 행정복지센터 화장실,경기도 안양시 동안구 경수대로 538,37.3709,126.9583,true,true,09:00~18:00,1,2,3,true,true,2022-12-31
pd-11,연현마을 공중화장실,경기도 안양시 석수동 461-2,37.4294958,126.8985783,true,true,상시,2,3,4,true,true,2022-12-31
pd-12,비산1동행정복지센터 공중화장실,경기도 안양시 동안구 비산로 12(비산동),37.3998143,126.9336974,true,true,09:00~18:00,8,4,13,true,false,2022-12-31
pd-13,미륭아파트 앞 공중화장실,경기도 안양시 동안구 경수대로 868번길 16,37.39839602,126.9443554,true,true,상시,1,2,3,true,true,2022-12-31
pd-14,옥지압마당(현충탑) 공중화장실,경기도 안양시 만안구 안양동 산103-174,37.388986,126.922054,false,true,상시,1,0,1,false,false,2022-12-31
pd-15,안양천생태이야기관 화장실,경기도 안양시 만안구 석수로 320,37.4170765,126.8959705,false,true,상시,1,2,3,false,true,2022-12-31
pd-16,안양4동행정복지센터공중화장실,경기도 안양시 만안구 냉천로193번길 34,37.4829297,126.7224218,true,true,09:00~18:00,2,4,2,false,true,2022-12-31
pd-17,병목안자연학습장 공중화장실,경기도 안양시 만안구 안양동 산81-7,37.380052,126.913491,false,true,상시,1,1,2,true,false,2022-12-31
pd-18,관악수목원 공중화장실,경기도 안양시 만안구 석수동 산11,37.437656,126.924762,true,true,상시,1,4,3,false,false,2022-12-31
pd-19,안양대교 옆 공중화장실,경기도 안양시 만안구 안양동 864-4,37.40993359,126.9133769,false,true,상시,1,2,2,true,true,2022-12-31
pd-20,학의천 수질정화시설 공중화장실,경기도 안양시 동안구 관양동 1307-173,37.3964166,126.9791377,false,true,상시,1,1,2,true,true,2022-12-31
pd-21,귀인동 행정복지센터 화장실,경기도 안양시 동안구 부림로 16,37.38552,126.9694,true,true,09:00~18:00,3,3,3,true,true,2022-12-31
pd-22,삼덕도서관 화장실,"경기도 안양시 만안구 병목안로 58, 안양시립삼덕도서관 (안양동)",37.396575,126.915432,true,true,09:00~18:00,7,8,14,true,false,2024-02-01
pd-23,안양천 수질정화시설 공중화장실,경기도 안양시 동안구 호계동 166-1,37.3797992,126.9406042,false,true,상시,1,1,1,true,true,2022-12-31
pd-24,남부시장 공중화장실,경기도 안양시 만안구 장내로140번길 51 (안양동),37.395954,126.924813,true,true,상시,3,3,5,true,true,2024-02-01
pd-25,최경환성지 앞 공중화장실,경기도 안양시 만안구 안양동 산 177,37.370415,126.905592,false,true,상시,1,2,2,false,false,2022-12-31
pd-26,만안구청 청사내 공중화장실,경기도 안양시 만안구 안양로 128,37.386699,126.932462,true,true,06:00~22:00,15,21,20,true,true,2022-12-31
pd-27,만안보건소 화장실,경기도 안양시 만안구 문예로 48,37.3858172,126.932891,true,true,09:00~18:00,1,3,2,false,false,2022-12-31
pd-28,범계동 행정복지센터 화장실,경기도 안양시 동안구 평촌대로217번길 63,37.3897624271,126.9525092,true,true,09:00~18:00,1,1,2,true,false,2022-12-31
pd-29,비산3동 행정복지센터공중화장실,"경기도 안양시 동안구 운곡로 34 (비산동, 비산3동 행정복지센터)",37.403879,126.945515,true,true,09:00~18:00,1,8,9,true,true,2022-12-31
pd-30,관양시장 공중화장실,경기도 안양시 동안구 관평로336번길 31 (관양동),37.405211,126.959283,true,true,07:00~20:00,3,3,4,true,true,2024-02-01
pd-31,쌍개울 공중화장실,경기도 안양시 동안구 경수대로883번길 13,37.39511447,126.9379395,true,true,상시,1,2,2,true,true,2022-12-31
pd-32,안양천 안양교 옆 공중화장실,경기도 안양시 만안구 안양동 858,37.409334,126.9159434,false,true,상시,1,1,2,true,true,2022-12-31
pd-33,만안청소년수련관,"경기도 안양시 만안구 냉천로31번길 33, 만안청소년수련관 (안양동)",37.382887,126.927023,true,true,09:00~22:00,18,18,43,false,false,2023-12-31
pd-34,박달빗물펌프장공중화장실,경기도 안양시 만안구 양화로 135번길 88,37.4050103,126.9046053,false,true,상시,1,1,2,true,true,2022-12-31
pd-35,평안동 행정복지센터 화장실,경기도 안양시 동안구 관평로138번길 39,37.391354,126.9644195,true,true,09:00~18:00,3,6,4,false,false,2022-12-31
pd-36,부흥동 행정복지센터 공중화장실,경기도 안양시 동안구 달안로 28,37.393757,126.947112,true,true,09:00~18:00,4,5,3,false,true,2022-12-31
pd-37,귀인동 문화복지센터 화장실,경기도 안양시 동안구 부림로 14,37.38524,126.9695,true,true,09:00~18:00,3,5,10,true,true,2022-12-31
pd-38,평촌청소년문화의집,경기도 안양시 동안구 흥안대로 394 (평촌동),37.38934235,126.9736578,true,true,09:00~18:00,3,0,7,true,true,2023-12-31
pd-39,박달시장 공중화장실,경기도 안양시 만안구 양화로 132-3 (박달동),37.404618,126.90962,true,true,상시,3,4,5,true,true,2024-02-01
pd-40,호금교 공중화장실,경기도 안양시 동안구 호계동 1035,37.3692356,126.9484215,true,true,상시,2,2,4,true,true,2022-12-31
pd-41,중앙시장 상인회관 공중화장실,경기도 안양시 만안구 냉천로185번길 8 (안양동),37.396445,126.919565,true,true,상시,0,0,1,true,true,2024-02-01
pd-42,박석교 공중화장실,경기도 안양시 박달동 10-1,37.4077945,126.9090621,true,true,상시,2,3,4,true,true,2022-12-31
pd-43,안일교 공중화장실,경기도 안양시 동안구 비산동 531-166,37.4020814,126.9276852,true,true,상시,2,2,4,true,true,2022-12-31
pd-44,비산2동 행정복지센터 화장실,"경기도 안양시 동안구 관악대로106번길 70, 비산2동 행정복지센터 (비산동)",37.397939,126.938851,true,true,09:00~18:00,4,4,12,true,true,2022-12-31
pd-45,새마을전통시장1(새마을상가번영회),"경기도 광명시 광명로831번길 4-1 (광명동, 새마을시장 관리회)",37.4737074541,126.8511763198,false,true,00:00~00:00,1,2,3,true,false,2024-06-13
pd-46,골든힐 쇼핑센타,"경기도 광명시 범안로 1056 (하안동, 골든힐쇼핑센타)",37.4624342796,126.8802439275,false,true,00:00~00:00,2,3,3,true,false,2024-06-13
pd-47,광명시민회관,경기도 광명시 시청로 20,37.477095356,126.8642212135,true,true,09:00~18:00,9,13,17,true,true,2024-06-13
pd-48,광명종합터미널(광명역복합터미널),경기도 광명시 광명역로 51(광명종합터미널),37.4186128041,126.8859506398,true,true,05:00~01:00,5,9,18,true,true,2024-06-13
pd-49,광명충전소,"경기도 광명시 광명로 675 (광명동, 광명LPG충전소)",37.4607293464,126.8448998083,false,true,00:00~00:00,1,2,2,true,false,2024-06-13
pd-50,갑종주유소,경기도 광명시 오리로 460(소하동),37.4431716859,126.8801428362,false,true,00:00~00:00,2,2,2,false,true,2024-06-13
pd-51,안양천 공중화장실(하안남초),경기도 광명시 하안동 852-1(하안남초),37.4618571,126.8874546,true,true,00:00~00:01,1,2,3,false,false,2024-06-13
pd-52,양지사거리체육공원,경기도 광명시 서독로 337,37.4163855456,126.8776295267,true,true,00:00~00:00,0,1,2,true,false,2024-06-13
pd-53,한성운수/보영운수,경기도 광명시 범안로 966,37.4572728334,126.8723377939,false,true,05:00~01:00,2,3,2,true,true,2024-06-13
pd-54,학온동 행정복지센터,경기도 광명시 서독로104번길 14,37.4154625363,126.8513513879,true,true,07:00~20:00,6,8,12,true,true,2024-06-13
pd-55,한국전력공사 광명지점,경기도 광명시 철산로 3-13,37.4768612385,126.865942289,true,true,09:00~18:00,1,1,2,false,true,2024-06-13
pd-56,하안1동 행정복지센터,경기도 광명시 오리로 747,37.4651787413,126.8691393728,true,true,09:00~18:00,1,2,6,false,true,2024-06-13
pd-57,한일주유소,경기도 광명시 가학로 77 (가학동),37.4167046756,126.8576351967,false,true,00:00~00:00,1,1,2,false,true,2024-06-13
pd-58,헵시바LPG 충전소,"경기도 광명시 오리로 1044 (광명동, 헵시바 LPG 충전소)",37.4817098237,126.847600861,false,true,00:00~00:00,2,2,1,true,true,2024-06-13
pd-59,성용주유소,"경기도 광명시 가학로 152 (가학동, 성용주유소)",37.4114345366,126.8614882921,false,true,00:00~00:00,1,2,1,true,true,2024-06-13
pd-60,하안노인종합복지관,경기도 광명시 철망산로 48,37.4680090159,126.8742270247,true,true,09:00~18:00,3,5,10,true,true,2024-06-13
pd-61,안양천 공중화장실(하안골프장),경기도 광명시 하안4동 800-8,37.4679634092,126.8819859831,true,true,00:00~00:00,2,1,3,true,true,2024-06-13
pd-62,시민체육관(본관 외부화장실),경기도 광명시 오리로 703,37.462521509,126.871163155,false,true,00:00~00:00,3,5,3,true,true,2024-06-13
pd-63,광명소방서 하안안전센터,경기도 광명시 범안로 1025,37.46150736,126.8770967826,false,true,09:00~18:00,2,1,2,true,false,2024-06-13
pd-64,안양천 공중화장실(철산주공13단지),경기도 광명시 안양천서자전거길 854,37.4824588521,126.8720358325,true,true,00:00~00:00,1,2,3,true,false,2024-06-13
pd-65,광명제일주유소,"경기도 광명시 범안로 608 (노온사동, 제일주유소)",37.4414255794,126.8406367875,false,true,00:00~00:00,2,2,2,true,false,2024-06-13
pd-66,경원주유소,경기도 광명시 광명로 136 (가학동),37.413817602,126.85054065,false,true,00:00~00:00,1,1,1,false,true,2024-06-13
pd-67,광명세무서,경기도 광명시 철산로 3-12,37.4767129273,126.8668596354,true,true,09:00~18:00,1,2,3,false,true,2024-06-13
pd-68,대호엠스퀘어(GS STEEL TOWER),경기도 광명시 신기로 21,37.4201786592,126.8837341013,true,true,00:00~00:00,1,2,3,true,false,2024-06-13
pd-69,광명동굴 (빛의 광장/미디어타워),경기도 광명시 가학동 산14-1,37.4278239567,126.8656007757,true,true,00:00~00:00,8,9,18,true,false,2024-06-13
pd-70,광명G타워,경기도 광명시 소하로 190 광명G타워,37.4457865683,126.8942300888,true,true,00:00~00:00,5,6,10,true,false,2024-06-13
pd-71,연서도서관,경기도 광명시 연서일로 10,37.4828760646,126.8647830117,true,true,07:00~23:00,6,3,12,true,true,2024-06-13
pd-72,기형도문학관,경기도 광명시 오리로 268,37.4263957257,126.8815583256,true,true,09:00~18:00,0,2,5,false,false,2024-06-13
pd-73,안양천 공중화장실(우성아파트),경기도 광명시 철산1동 459(우성아파트),37.4824588521,126.8720358325,true,true,00:00~00:00,2,1,3,true,false,2024-06-13
pd-74,하안성당,경기도 광명시 구름산로 50 (하안동),37.4569175954,126.8784577513,true,true,00:00~00:00,4,4,6,true,false,2024-06-13
pd-75,하안10단지 종합상가,"경기도 광명시 하안로 320-21 (하안동, 하안주공10단지 종합상가)",37.4649413705,126.8804946253,false,true,06:00~24:00,1,2,2,false,false,2024-06-13
pd-76,신한빌딩,경기도 광명시 소하로109번길 14,37.4471475786,126.8854913806,true,true,00:00~00:00,1,1,3,true,false,2024-06-13
pd-77,일직수변공원,경기도 광명시 오리로84번길 17,37.4126889731,126.8839838403,true,true,00:00~00:00,3,3,7,true,false,2024-06-13
pd-78,철산3동 행정복지센터,경기도 광명시 철산로 56,37.4770228014,126.872568492,true,true,09:00~22:00,5,5,15,true,true,2024-06-13
pd-79,차량등록사업소,경기도 광명시 오리로 701,37.4618213001,126.8733966074,true,true,09:00~18:30,3,4,3,true,true,2024-06-13
pd-80,철산4동 행정복지센터 임시청사 화장실,경기도 광명시 오리로 908,37.4774597,126.8620825,true,true,09:00~18:00,2,2,2,false,false,2024-06-13
pd-81,광명한진타운상가,"경기도 광명시 광명로 877 (광명동, 한진아파트)",37.4775753264,126.8513690783,false,true,00:00~00:00,3,4,2,true,false,2024-06-13
pd-82,웅진빌딩,"경기도 광명시 철산로 15 (철산동, 웅진빌딩)",37.4764380617,126.8677101859,true,true,00:00~00:00,2,0,2,true,false,2024-06-13
pd-83,소하도서관,경기도 광명시 소하일로 7,37.4454569829,126.8879923302,true,true,07:00~23:00,10,5,20,true,true,2024-06-13
pd-84,광명메모리얼파크,경기도 광명시 자경로 153,37.4316502628,126.8919025746,true,true,09:00~18:00,4,7,10,false,true,2024-06-13
pd-85,신나는어린이공원,경기도 광명시 도덕로54번길 11,37.4682113087,126.8544264266,true,true,00:00~00:00,0,1,1,true,false,2024-06-13
pd-86,철산12단지사상가,"경기도 광명시 철산로 62 (철산동, 주공상가)",37.4771517471,126.8730876677,false,true,07:00~22:00,1,2,2,true,true,2024-06-13
pd-87,구름산주유소,"경기도 광명시 오리로 524 (소하동, 구름산주유소)",37.4488950093,126.881802762,false,true,00:00~00:00,1,2,2,true,true,2024-06-13
pd-88,정인코아빌딩,"경기도 광명시 디지털로 29, 철산동",37.4741652612,126.8708281127,false,true,00:00~00:00,2,2,2,true,false,2024-06-13
pd-89,(주)서울주유소,경기도 광명시 오리로 461 (소하동),37.4432399358,126.8794074637,false,true,00:00~00:00,1,2,2,true,true,2024-06-13
pd-90,광명역자이TOWER,경기도 광명시 일직동 515-1 외1필지,37.4196800108,126.8883829899,true,true,00:00~00:00,6,4,12,true,false,2024-06-13
pd-91,광명동굴 (제3주차장),경기도 광명시 소하동 1069-1,37.4319913781,126.8780441719,true,true,00:00~00:00,1,0,2,true,false,2024-06-13
pd-92,가학충전소,"경기도 광명시 광명로 159 (가학동, 가학충전소)",37.4154327103,126.8492045381,true,true,06:00~22:00,1,2,1,false,false,2024-06-13
pd-93,광명6동 행정복지센터,경기도 광명시 광명로791번길 6,37.4710616219,126.8486546807,true,true,09:00~18:00,5,6,10,true,true,2024-06-13
pd-94,철산3동 우체국,경기도 광명시 모세로 54,37.4810970407,126.8708944087,true,true,09:00~18:00,0,1,0,true,false,2024-06-13
pd-95,중앙시장,"경기도 광명시 철산로30번길 15 (철산동, 철산시장)",37.4750730602,126.8703455014,true,true,06:00~23:00,1,3,2,false,false,2024-06-13
pd-96,꽃향기어린이공원,경기도 광명시 성채로 4,37.4322699342,126.8861222062,true,true,00:00~00:00,0,0,1,true,true,2024-06-13
pd-97,극동실업가스충전소,"경기도 광명시 범안로 903 (하안동, 극동실업가스충전소)",37.4543473198,126.8663133042,false,true,00:00~00:00,1,2,1,false,false,2024-06-13
pd-98,광명7동 행정복지센터,경기도 광명시 새터로 13(광명동),37.46936428,126.8530684847,true,true,09:00~18:00,3,3,3,true,false,2024-06-13
pd-99,광명역 유플래닛 어반브릭스,경기도 광명시 양지로 19,37.4189383584,126.882693262,true,true,00:00~00:00,11,16,20,true,false,2024-06-13
pd-100,㈜하이웨이에너지,경기도 광명시 광명로 769 (광명동),37.4688947292,126.8479949665,false,true,00:00~00:00,1,2,1,false,false,2024-06-13
pd-101,현대주유소,"경기도 광명시 남부순환로 997 (철산동, 현대주유소)",37.4929968944,126.8678873595,false,true,00:00~00:00,1,2,1,false,false,2024-06-13
pd-102,코스트코 코리아(광명점),"경기도 광명시 일직로 40 (일직동, Costco 광명점)",37.4208122769,126.8859778856,true,true,00:00~00:00,4,7,12,false,true,2024-06-13
pd-103,예지원요양병원,"경기도 광명시 광명로 844 (광명동, 예지원 요양병원)",37.4744258198,126.8523236727,true,true,06:00~22:00,1,2,1,false,false,2024-06-13
pd-104,광명골프연습장,경기도 광명시 안현로 81,37.4676085039,126.8803256066,false,true,05:30~22:30,10,12,12,true,false,2024-06-13
pd-105,센트럴스퀘어,경기도 광명시 신기로17번길 11,37.4212409871,126.8834880647,true,true,00:00~00:00,1,1,3,true,false,2024-06-13
pd-106,광명철산우체국,경기도 광명시 광덕산로 35-1,37.4712162814,126.8722325265,false,true,09:00~18:00,1,1,1,false,false,2024-06-13
pd-107,서울스타빌딩,경기도 광명시 범안로 1046 (하안동),37.4620331296,126.8793765541,false,true,00:00~00:00,2,3,3,true,false,2024-06-13
pd-108,골든프라자,"경기도 광명시 소하로 77, 소하동",37.4479151833,126.8840380019,true,true,00:00~00:00,1,3,3,true,false,2024-06-13
pd-109,광명6동 우체국,경기도 광명시 광명로 827,37.4732840234,126.851213908,false,true,09:00~18:00,1,0,1,false,true,2024-06-13
pd-110,광명2동 우체국,경기도 광명시 광명로 944,37.4829837458,126.8563669119,true,true,09:00~18:00,2,3,2,false,true,2024-06-13
pd-111,보훈회관,경기도 광명시 연서일로17번길 26,37.4816612265,126.8618073142,true,true,09:00~18:00,2,6,2,true,true,2024-06-13
pd-112,하안주공3단지 종합상가,"경기도 광명시 안현로 22, 하안동",37.463702392,126.8745795398,true,true,06:30~24:00,2,2,4,false,false,2024-06-13
pd-113,광명성애병원,경기도 광명시 디지털로 36,37.4732140184,126.8716164265,true,true,00:00~00:00,2,3,4,false,false,2024-06-13
pd-114,철산13단지바상가,"경기도 광명시 철산로 43 (철산동, 주공상가)",37.477300214,126.8704964635,false,true,07:00~22:00,2,2,2,true,false,2024-06-13
pd-115,시민체육관(가림산 둘레길 화장실),경기도 광명시 오리로 703,37.462521509,126.871163155,false,true,00:00~00:00,1,2,1,true,false,2024-06-13
pd-116,푸름청소년활동센터,경기도 광명시 광명로791번길 6,37.4710616219,126.8486546807,true,true,09:00~22:00,1,1,1,true,true,2024-06-13
pd-117,광덕어린이공원,경기도 광명시 도덕공원로 36,37.472559962,126.8656054237,true,true,00:00~00:00,1,1,2,true,false,2024-06-13
pd-118,광명역(ktx),"경기도 광명시 광명역로 21 (일직동, 고속철도 광명역)",37.4163538461,126.8848842139,true,true,05:00~01:00,20,22,49,false,false,2024-06-13
pd-119,메이저리치안,"경기도 광명시 금하로 464 (소하동, 메이저리치안)",37.4484470224,126.8840449468,true,true,00:00~00:00,1,1,3,false,false,2024-06-13
pd-120,청덕빌딩,경기도 광명시 디지털로 25,37.4740987951,126.8701953434,true,true,00:00~00:00,1,2,2,true,false,2024-06-13
pd-121,옥길주유소,"경기도 광명시 금오로 846 (옥길동, 옥길주유소)",37.4744762304,126.8402560588,false,true,00:00~00:00,2,2,2,true,true,2024-06-13
pd-122,목감천 공중화장실(광명3배수펌프장),경기도 광명시 목감로 271,37.4870658852,126.8590701566,false,true,00:00~00:00,1,1,1,true,true,2024-06-13
pd-123,광명3동 행정복지센터,경기도 광명시 광명로928번길 18-20,37.4802376988,126.8569333625,true,true,09:00~18:00,1,2,4,true,false,2024-06-13
pd-124,안양천 공중화장실(광명대교),경기도 광명시 철산동 608번지,37.4805144232,126.8735994312,true,true,00:00~00:00,1,1,2,true,true,2024-06-13
pd-125,새빛공원,경기도 광명시 새빛공원로 10,37.4138006233,126.8874273092,true,true,00:00~00:00,4,4,9,true,false,2024-06-13
pd-126,도덕산 캠핑장,경기도 광명시 밤일안로42번길 69,37.4595987125,126.860637999,true,true,00:00~00:00,2,4,8,true,true,2024-06-13
pd-127,광명동굴 (라스코전시관),경기도 광명시 가학동 산17-1,37.4264914941,126.8664844314,true,true,00:00~00:00,2,4,6,true,false,2024-06-13
pd-128,창업지원센터,경기도 광명시 오리로 362,37.4347238573,126.8797490702,true,true,08:00~18:00,5,4,10,false,true,2024-06-13
pd-129,롯데프리미엄아울렛,"경기도 광명시 일직로 17 (일직동, 롯데아울렛)",37.4242749767,126.8827963758,true,true,00:00~00:00,16,14,11,false,false,2024-06-13
pd-130,철산2동 행정복지센터,경기도 광명시 시청로 94,37.4846591,126.8666228,true,true,09:00~18:00,1,1,1,true,true,2024-06-13
pd-131,NH농협은행 광명시지부,경기도 광명시 철산로 32 (철산동),37.4762418766,126.8697928282,true,true,00:00~00:00,1,1,1,true,false,2024-06-13
pd-132,한내근린공원(공원관리소),경기도 광명시 소하로 121,37.4471901682,126.8857599971,true,true,00:00~00:00,3,4,10,true,true,2024-06-13
pd-133,광덕산근린공원,경기도 광명시 시청로138번안길 18-1,37.4873103238,126.8697564132,false,true,00:00~00:00,1,2,2,true,false,2024-06-13
pd-134,가림빌딩,"경기도 광명시 디지털로 17 (철산동, 가림빌딩)",37.4740222262,126.8693590909,false,true,00:00~00:00,2,2,2,true,false,2024-06-13
pd-135,열린시민청,경기도 광명시 오리로854번길 10,37.4743689676,126.8684627314,true,true,09:00~18:00,11,9,18,true,true,2024-06-13
pd-136,구름산산림욕장,경기도 광명시 오리로619번길 34,37.4535771793,126.8759852824,false,true,00:00~00:00,2,4,4,true,true,2024-06-13
pd-137,광명소방서,경기도 광명시 금하로 472,37.4487323189,126.8851731666,true,true,09:00~18:00,2,2,2,false,true,2024-06-13
pd-138,충현도서관,경기도 광명시 충현로42번길 19,37.4340468758,126.8847394473,true,true,07:00~23:00,4,5,5,true,true,2024-06-13
pd-139,광명우체국,경기도 광명시 범안로 1017,37.4611063661,126.8762633578,true,true,09:00~18:00,2,3,2,true,true,2024-06-13
pd-140,광명시 가족센터,경기도 광명시 디지털로 34 2층,37.4733638123,126.8709705427,false,true,09:00~18:00,1,1,2,false,false,2024-06-13
pd-141,새마을전통시장2,경기도 광명시 광명로 837 (광명동),37.473987482,126.8512869928,false,true,00:00~00:00,1,1,2,true,true,2024-06-13
pd-142,광명동굴 (경관광장),경기도 광명시 가학동 10-10,37.4241916808,126.8645454537,true,true,00:00~00:00,2,6,8,true,false,2024-06-13
pd-143,광명교육지원청,경기도 광명시 광명로 777,37.4697515,126.8482824,true,true,09:00~18:00,8,11,21,false,false,2024-06-13
pd-144,광명시 보건소,경기도 광명시 오리로 613,37.4554107848,126.8781649434,true,true,09:00~18:00,10,6,12,true,true,2024-06-13
pd-145,삼성주유소,경기도 광명시 범안로 925 (하안동),37.4560141621,126.8678708684,false,true,00:00~00:00,2,2,2,false,true,2024-06-13
pd-146,태홍빌딩,"경기도 광명시 하안로 289 (하안동, 태홍빌딩)",37.461694901,126.8801934925,false,true,00:00~00:00,2,2,2,true,false,2024-06-13
pd-147,신신타워,경기도 광명시 소하로109번길 8,37.4466157982,126.8854957303,true,true,00:00~00:00,2,2,5,false,false,2024-06-13
pd-148,철산래미안자이상가,"경기도 광명시 디지털로 56 (철산동, 철산래미안자이상가)",37.4720290111,126.8742161295,true,true,07:00~00:00,2,2,1,true,false,2024-06-13
pd-149,효도프라자,"경기도 광명시 철산로 29번길 9, 철산동",37.4775071771,126.8687416903,false,true,09:00~20:00,2,2,2,true,false,2024-06-13
pd-150,시립철산종합사회복지관,경기도 광명시 연서일로 4-3,37.483078547,126.8655617394,true,true,09:00~18:00,6,8,10,true,true,2024-06-13
pd-151,목감천 공중화장실(개명화장실),경기도 광명시 목감로 193,37.481407097,126.8514268487,true,true,00:00~00:00,0,1,2,true,false,2024-06-13
pd-152,소하근린공원,경기도 광명시 오리로403번길 36-17,37.4356289052,126.8756766183,true,true,00:00~00:00,1,2,3,true,false,2024-06-13
pd-153,청소년상담복지센터(본관),경기도 광명시 디지털로 34,37.4733638123,126.8709705427,true,true,09:00~20:00,4,2,7,true,false,2024-06-13
pd-154,광명동굴 (동측광장),경기도 광명시 소하동 1132,37.4303303476,126.8750641778,false,true,00:00~00:00,1,1,2,true,false,2024-06-13
pd-155,노온정수장(숲길),경기도 광명시 범안로 777-21,37.4499084584,126.8588248848,false,true,00:00~00:00,1,1,2,true,true,2024-06-13
pd-156,CL타워,"경기도 광명시 오리로 518 (소하동, CL타워)",37.4482021147,126.8820232685,false,true,00:00~00:00,2,2,2,true,false,2024-06-13
pd-157,가로정비과,경기도 광명시 도덕로 5,37.4680861048,126.8484656376,false,true,09:00~18:00,3,2,2,false,false,2024-06-13
pd-158,장미셀프주유소,경기도 광명시 광명로 269 (노온사동),37.4248030633,126.845246865,false,true,00:00~00:00,2,2,1,false,true,2024-06-13
pd-159,광명경찰서,경기도 광명시 디지털로 5,37.4741604558,126.8682382977,true,true,09:00~18:00,1,2,1,true,false,2024-06-13
pd-160,나름청소년활동센터,경기도 광명시 철산로 56,37.4770228014,126.872568492,true,true,09:00~22:00,1,2,3,true,true,2024-06-13
pd-161,광명트리플타워오피스텔,경기도 광명시 일직로 28,37.4220767428,126.8847356881,true,true,00:00~00:00,3,2,6,true,false,2024-06-13
pd-162,하안2동 행정복지센터,경기도 광명시 안현로 25,37.4647036931,126.8747295107,true,true,09:00~18:00,1,3,5,true,false,2024-06-13
pd-163,철망산근린공원(하안문화원),경기도 광명시 철망산로 48,37.4674358518,126.8732253548,false,true,00:00~00:00,1,1,2,true,false,2024-06-13
pd-164,안터생태공원,경기도 광명시 안재로1번길 27,37.4593325679,126.8698216917,true,true,10:00~17:00,2,2,3,true,false,2024-06-13
pd-165,비엔팰리스,경기도 광명시 금하로 529,37.4515645885,126.8907803823,true,true,00:00~00:00,1,2,1,true,false,2024-06-13
pd-166,광명 한라비발디 큐브,경기도 광명시 오리로 500,37.4466941866,126.8815156294,true,true,00:00~00:00,2,3,4,false,false,2024-06-13
pd-167,하안도서관,경기도 광명시 철망산로 46,37.4678532158,126.8737420595,true,true,07:00~23:00,17,23,28,true,true,2024-06-13
pd-168,광덕근린공원,경기도 광명시 하안로 421,37.470377452,126.8729047188,true,true,00:00~00:00,2,2,4,true,false,2024-06-13
pd-169,세이브존(광명점),"경기도 광명시 철망산로 87 (철산동, 세이브존)",37.4703331155,126.8773741251,false,true,00:00~00:00,2,2,3,false,true,2024-06-13
pd-170,철산1동 행정복지센터,경기도 광명시 사성로 121,37.4908157172,126.8679057413,true,true,09:00~18:00,2,2,1,true,true,2024-06-13
pd-171,소하저류지 수세식 화장실,경기도 광명시 소하동 1374번지,37.4353277916,126.8896766592,false,true,00:00~00:00,1,1,1,true,false,2024-06-13
pd-172,광명나들목주유소,경기도 광명시 광명로 417 (노온사동),37.4379979225,126.8450527953,false,true,00:00~00:00,1,2,2,false,true,2024-06-13
pd-173,가리대광장,경기도 광명시 소하2동 341-11,37.441599836,126.8731805116,false,true,00:00~00:00,1,2,2,true,true,2024-06-13
pd-174,금산빌딩,"경기도 광명시 오리로 902 (철산동, 금산빌딩)",37.4772863957,126.8628737193,false,true,10:00~21:00,2,4,3,true,false,2024-06-13
pd-175,영진주유소,"경기도 광명시 범안로 984 (하안동, 영진주유소)",37.4586313512,126.8735589104,false,true,00:00~00:00,1,2,2,true,true,2024-06-13
pd-176,시민체육관(인공암벽장 외부 화장실),경기도 광명시 오리로 703,37.462521509,126.871163155,true,true,00:00~00:00,2,3,3,true,false,2024-06-13
pd-177,대복주유소,경기도 광명시 광명로 344 (노온사동),37.4316565103,126.8474364701,false,true,00:00~00:00,2,1,1,false,false,2024-06-13
pd-178,도덕산공원(야외음악당),경기도 광명시 광명동 317-80/광명동 산 75,37.4681252126,126.8576482333,true,true,00:00~00:00,1,2,2,true,true,2024-06-13
pd-179,한내근린공원(소하1동주민센터),경기도 광명시 소하로 21,37.4509652537,126.8856523987,true,true,00:00~00:00,0,0,1,true,false,2024-06-13
pd-180,덕안주유소,경기도 광명시 오리로 270 (소하동),37.4268099805,126.8814871042,false,true,00:00~00:00,1,2,2,false,true,2024-06-13
pd-181,철산배수지 화장실,경기도 광명시 가림로201번안길 14-4,37.4738511913,126.8614808036,true,true,00:00~00:00,1,1,4,true,false,2024-06-13
pd-182,하안4동 행정복지센터,경기도 광명시 안현로 54,37.4657110209,126.8777290873,true,true,09:00~18:00,5,4,6,true,true,2024-06-13
pd-183,광명장애인종합복지관,경기도 광명시 목감로 120,37.4789283486,126.8466410637,true,true,09:00~18:00,0,10,0,true,true,2024-06-13
pd-184,광명5동 행정복지센터,경기도 광명시 너부대로35번길 20,37.4787618494,126.8475020804,true,true,09:00~18:00,9,6,17,true,true,2024-06-13
pd-185,광명동굴 (코끼리차 주차장),경기도 광명시 소하동 1132,37.4303303476,126.8750641778,false,true,00:00~00:00,1,1,2,true,false,2024-06-13
pd-186,광명문화원,경기도 광명시 철망산로 42,37.4678532158,126.8737420595,true,true,09:00~18:00,3,6,8,true,false,2024-06-13
pd-187,너부대근린공원,경기도 광명시 목감로 120,37.4802436372,126.8465165083,true,true,00:00~00:00,0,1,2,true,true,2024-06-13
pd-188,큰사랑주유소,"경기도 광명시 금오로 659 (옥길동, 큰사랑주유소)",37.4597450082,126.8316902533,false,true,00:00~00:00,1,1,2,false,true,2024-06-13
pd-189,한내근린공원(소하초),경기도 광명시 소하일로 51,37.4454569829,126.8879923302,false,true,00:00~00:00,1,2,2,true,false,2024-06-13
pd-190,광명스피돔,"경기도 광명시 광명로 721 (광명동, 광명시돔경륜장)",37.4699014625,126.8458601759,true,true,00:00~00:00,4,6,6,false,true,2024-06-13
pd-191,시립하안종합사회복지관,경기도 광명시 하안로 238,37.4601397538,126.884446569,true,true,09:00~20:00,10,13,13,true,true,2024-06-13
pd-192,광명효요양병원,경기도 광명시 오리로 352 (소하동),37.433984238,126.8796534433,false,true,00:00~00:00,1,2,2,true,false,2024-06-13
pd-193,광명전통시장 공영주차장,경기도 광명시 광명로 938,37.482342335,126.8561009588,true,true,09:00~22:00,1,0,2,true,false,2024-06-13
pd-194,크로앙스,"경기도 광명시 오리로 970 (광명동, 크로앙스)",37.4794646202,126.8556619346,true,true,00:00~00:00,18,24,26,true,false,2024-06-13
pd-195,소하1동 행정복지센터,경기도 광명시 소하로 25,37.4522553122,126.8849182084,true,true,09:00~18:00,4,6,10,true,true,2024-06-13
pd-196,광명도서관,경기도 광명시 원광명안로 48,37.4653532721,126.8514294536,true,true,07:00~23:00,21,21,21,true,true,2024-06-13
pd-197,현충근린공원,경기도 광명시 연서일로 10,37.4828760646,126.8647830117,true,true,00:00~00:00,0,1,1,true,false,2024-06-13
pd-198,어린이교통공원,경기도 광명시 소하로 21,37.4509652537,126.8856523987,true,true,00:00~00:00,2,1,3,true,false,2024-06-13
pd-199,꿈동산어린이공원,경기도 광명시 광명로775번길 9,37.469625823,126.8473811046,true,true,00:00~00:00,0,0,1,true,true,2024-06-13
pd-200,아크포레자이위브 1단지,"경기도 광명시 새터로 44-7 (광명동, 광명아크포레자이위브)",37.4721570042,126.8560978722,true,true,00:00~00:00,1,2,2,true,false,2024-06-13
pd-201,우리또래어린이공원,경기도 광명시 덕단이로9번길 12,37.4672147981,126.8501781494,true,true,00:00~00:00,0,2,2,true,false,2024-06-13
pd-202,홍우빌딩,경기도 광명시 범안로 992,37.4591862466,126.87451539,false,true,00:00~00:00,2,2,2,true,false,2024-06-13
pd-203,광명등기소,경기도 광명시 철산로 3-16,37.4771546929,126.8668785281,true,true,09:00~18:00,2,1,4,true,false,2024-06-13
pd-204,향군회관,경기도 광명시 덕단이로 54,37.4652952892,126.8540081936,false,true,00:00~00:00,1,0,1,true,true,2024-06-13
pd-205,뉴코아아울렛,"경기도 광명시 하안로287번길 8 (하안동, 뉴코아아울렛)",37.4611586121,126.8793385524,true,true,00:00~00:00,4,4,26,true,true,2024-06-13
pd-206,현대테라타워,경기도 광명시 오리로651번길 10,37.4593634078,126.875351518,true,true,00:00~00:00,2,2,4,true,false,2024-06-13
pd-207,시립광명종합사회복지관,경기도 광명시 오리로 1018,37.4809053962,126.8504693907,true,true,08:00~19:00,12,13,21,true,true,2024-06-13
pd-208,철산도서관,경기도 광명시 철산로 56,37.4770228014,126.872568492,true,true,07:00~23:00,6,18,30,true,true,2024-06-13
pd-209,목감천 공중화장실(광남화장실),경기도 광명시 광명7동 397-3(광남교),37.4710194881,126.8452077685,false,true,00:00~00:00,2,2,3,true,true,2024-06-13
pd-210,광명시청,경기도 광명시 시청로 20,37.477095356,126.8642212135,true,true,09:00~18:00,39,45,35,false,true,2024-06-13
pd-211,안양천 공중화장실(소하화장실),경기도 광명시 소하동 524,37.4439125503,126.8974835677,true,true,00:00~00:00,1,2,2,true,true,2024-06-13
pd-212,AK 플라자 광명점,경기도 광명시 양지로 17,37.4186779767,126.8828875175,true,true,00:00~00:00,7,5,46,true,false,2024-06-13
pd-213,소하노인종합복지관,경기도 광명시 소하로 25,37.4522553122,126.8849182084,true,true,09:00~18:00,9,13,21,true,true,2024-06-13
pd-214,광덕빌딩,경기도 광명시 오리로 853,37.4745122029,126.8665954646,true,true,00:00~00:00,4,5,6,true,false,2024-06-13
pd-215,디딤청소년활동센터,경기도 광명시 성채로 52,37.4321123894,126.880222743,true,true,09:00~22:00,2,3,3,true,true,2024-06-13
pd-216,영당말근린공원,경기도 광명시 오리로348번길 22,37.4337437889,126.8823461113,true,true,00:00~00:00,3,4,6,true,false,2024-06-13
pd-217,광명국민체육센터,경기도 광명시 사성로 74,37.4868017616,126.8656773005,true,true,06:00~22:00,4,4,6,true,false,2024-06-13
pd-218,명동빌딩,경기도 광명시 철산로 27 (철산동),37.4768324593,126.868984872,false,true,0800~23:00,1,2,2,true,false,2024-06-13
pd-219,KTX주유소,경기도 광명시 오리로 121 (일직동),37.4140576489,126.8784278777,false,true,00:00~00:00,2,2,2,false,false,2024-06-13
pd-220,하안3동 우체국,경기도 광명시 금당로 45,37.4599703227,126.8830684695,false,true,09:00~18:00,1,2,1,true,false,2024-06-13
pd-221,통일주유소,"경기도 광명시 광명로 561 (노온사동, 통일주유소)",37.4507594933,126.844749343,false,true,00:00~00:00,1,2,2,false,true,2024-06-13
pd-222,이케아,"경기도 광명시 일직로 17 (일직동, 이케아광명점)",37.4242749767,126.8827963758,true,true,00:00~00:00,20,17,20,true,true,2024-06-13
pd-223,고속철주유소,경기도 광명시 광명로 207 (가학동),37.4200430534,126.8483622526,false,true,00:00~00:00,2,1,2,false,true,2024-06-13
pd-224,도덕산 공중화장실(하안5단지),경기도 광명시 하안동 산50,37.4635402669,126.8585726693,false,true,00:00~00:00,0,2,1,true,true,2024-06-13
pd-225,육아종합지원센터,경기도 광명시 성채로78번길 7,37.4323212033,126.8770787543,true,true,09:00~18:00,2,2,6,false,false,2024-06-13
pd-226,주민건강증진센터,경기도 광명시 광명로 942-1,37.4827760127,126.856289519,true,true,09:00~18:00,4,4,7,false,true,2024-06-13
pd-227,평생학습원,경기도 광명시 하안동 철망산로 2,37.4667420624,126.8698838918,true,true,09:00~21:00,17,14,45,true,true,2024-06-13
pd-228,여성비전센터,경기도 광명시 오리로366번길 6,37.4347890253,126.8801441546,true,true,06:00~22:00,5,2,16,true,false,2024-06-13
pd-229,덕안근린공원,경기도 광명시 오리로 282-11,37.4277727113,126.8848977175,false,true,00:00~00:00,1,2,2,true,false,2024-06-13
pd-230,개운어린이공원,경기도 광명시 영당안로 49,37.4369295259,126.8775266241,true,true,00:00~00:00,1,1,1,true,true,2024-06-13
pd-231,행운주유소,경기도 광명시 부광로 309 (옥길동),37.4641593606,126.8344779328,false,true,00:00~00:00,1,2,2,true,true,2024-06-13
pd-232,광명4동 주민센터,경기도 광명시 광명로888번길 26-6,37.4771336719,126.8563153005,true,true,09:00~18:00,1,2,1,true,true,2024-06-13
pd-233,햇무리어린이공원,경기도 광명시 시청로 42,37.4927768,126.8670836,true,true,00:00~00:00,0,1,1,true,true,2024-06-13
pd-234,조일프라자빌딩,"경기도 광명시 하안로288번길 15 (하안동, 조일프라자빌딩)",37.4622507497,126.8813422819,false,true,00:00~00:00,1,3,3,false,false,2024-06-13
pd-235,하안단지주유소,경기도 광명시 오리로 608 (소하동),37.4560984741,126.8803866688,false,true,00:00~00:00,1,2,2,false,true,2024-06-13
pd-236,제일빌딩,"경기도 광명시 범안로 1042 (하안동, 제일빌딩)",37.4618329979,126.8790276739,false,true,00:00~00:00,2,3,2,false,false,2024-06-13
pd-237,광명사회체육센터,"경기도 광명시 철산로 45 (철산동, 광명시사회체육센터)",37.4774115639,126.8710949543,true,true,09:00~18:00,7,11,9,true,false,2024-06-13
pd-238,"광명전통시장1(구 조합 사무실, 시간제보육실)",경기도 광명시 광명로918번길 12-1,37.4803519751,126.8564007973,true,true,09:00~22:00,3,2,4,true,false,2024-06-13
pd-239,아이플랙스,경기도 광명시 소하로 81,37.4476356555,126.884017683,true,true,00:00~00:00,2,2,2,true,false,2024-06-13
pd-240,뒷골녹지,경기도 광명시 가학동 267,37.4159411192,126.8592062586,false,true,00:00~00:00,1,1,2,true,false,2024-06-13
pd-241,소하2동 행정복지센터,경기도 광명시 성채로 52,37.4321123894,126.880222743,true,true,09:00~18:00,6,6,12,true,true,2024-06-13
pd-242,돌산배드민턴장(숲길),경기도 광명시 가림로201번안길 14-6,37.4711006503,126.8594059687,false,true,00:00~00:00,1,1,2,true,true,2024-06-13
pd-243,하안3동 행정복지센터,경기도 광명시 금당로 28,37.4587098639,126.8816202099,true,true,09:00~18:00,2,1,2,true,false,2024-06-13
pd-244,하안중앙상가,"경기도 광명시 안현로 52 (하안동, 중앙상가)",37.4655654996,126.8774815148,false,true,08:00~22:00,2,2,2,true,false,2024-06-13
pd-245,광명전통시장2(고객쉼터),경기도 광명시 광이로13번길 17-5,37.4799450904,126.8561667713,true,true,09:00~22:00,2,3,6,true,false,2024-06-13
pd-246,광명사거리역,"경기도 광명시 오리로 지하 980 (광명동, 광명사거리역)",37.4795141318,126.8548245539,true,true,05:00~01:00,3,6,9,true,true,2024-06-13
pd-247,광명무역센터,경기도 광명시 일직로 72,37.4200082868,126.8891149027,true,true,00:00~00:00,3,2,7,true,false,2024-06-13
pd-248,광명2동 행정복지센터,경기도 광명시 광명로 947,37.4833689062,126.8559224869,true,true,09:00~18:00,3,1,4,false,true,2024-06-13
pd-249,(주)새서울석유 철산주유소,경기도 광명시 오리로 883 (철산동),37.4759436201,126.8645928803,false,true,00:00~00:00,2,2,1,false,true,2024-06-13
pd-250,소하우체국,경기도 광명시 오리로 332,37.4321188533,126.8797366569,true,true,09:00~18:00,0,0,0,false,false,2024-06-13
pd-251,아크포레자이위브 2단지,"경기도 광명시 새터로 44-8 (광명동, 광명아크포레자이위브)",37.4709359758,126.8553280314,true,true,00:00~00:00,1,2,2,true,false,2024-06-13
pd-252,광일주유소,경기도 광명시 광명로 712 (광명동),37.4637223348,126.8466151,false,true,00:00~00:00,2,2,2,false,false,2024-06-13
pd-253,철산역,"경기도 광명시 철산로 지하 13 (철산동, 철산역)",37.4760245459,126.8679172443,true,true,05:00~01:00,3,5,8,true,false,2024-06-13
pd-254,사성공원,경기도 광명시 안양천로 495,37.4912648399,126.8686388915,false,true,00:00~00:00,1,2,2,true,true,2024-06-13
pd-255,in-n-out주유소,경기도 광명시 안양천로 463 (철산동),37.4890119358,126.8693914557,false,true,00:00~00:00,1,2,2,false,true,2024-06-13
pd-256,광명청소년수련관,경기도 광명시 소하일로 9,37.4461686186,126.8879073968,true,true,09:00~22:00,14,14,32,true,true,2024-06-13
pd-257,이마트,경기도 광명시 소하로 97 (소하동),37.4465293847,126.8844789638,true,true,00:00~00:00,7,7,16,false,false,2024-06-13
pd-258,현대타운,"경기도 광명시 광명로 823, 광명동",37.4729491713,126.8509679997,false,true,00:00~00:00,2,3,3,true,true,2024-06-13
pd-259,광명 21세기병원,경기도 광명시 광명로 963 (광명동),37.4846691995,126.8563524527,false,true,00:00~00:00,1,2,2,true,true,2024-06-13
pd-260,하안주공1단지종합상가,"경기도 광명시 안현로 19, 하안동",37.4645313654,126.8745274026,false,true,07:00~22:00,4,3,4,true,false,2024-06-13
pd-261,해냄청소년활동센터,경기도 광명시 광오로 38,37.4763324279,126.8482696456,true,true,09:00~22:00,2,2,2,true,false,2024-06-13
pd-262,범안셀프주유소,"경기도 광명시 범안로 864 (하안동, 범안셀프주유소)",37.4511741612,126.8645650406,false,true,00:00~00:00,2,2,1,false,false,2024-06-13
pd-263,우리어린이공원,경기도 광명시 광명동 759-14,37.472011725,126.8460648317,true,true,00:00~00:00,0,1,1,true,true,2024-06-13
pd-264,오리서원,경기도 광명시 오리로 287,37.4285174082,126.8805010378,true,true,09:00~18:00,5,5,4,false,false,2024-06-13
pd-265,광명동굴 (제2주차장),경기도 광명시 가학동 산16-1,37.4250758615,126.8655719008,false,true,00:00~00:00,2,4,8,true,false,2024-06-13
pd-266,벌말self주유소,경기도 광명시 광명로 38 (가학동),37.4056082696,126.8542159276,false,true,00:00~00:00,2,2,2,true,false,2024-06-13
pd-267,광명이편한세상센트레빌아파트나상가,경기도 광명시 오리로 801,37.4695450122,126.8681295507,false,true,00:00~00:00,2,2,4,false,false,2024-06-13
pd-268,학온주유소,경기도 광명시 광명로 627 (광명동),37.4565802928,126.844393278,false,true,00:00~00:00,1,2,1,false,true,2024-06-13
pd-269,구름산입구(산림휴양-3호),경기도 광명시 하안동   811-12,37.4556253736,126.8787395365,true,true,00:00~00:00,0,2,2,true,false,2024-06-13
pd-270,광명IC사거리주유소(백제주유소),경기도 광명시 광명로 482 (노온사동),37.4436710111,126.8473208327,false,true,00:00~00:00,1,2,1,false,true,2024-06-13
pd-271,중앙대학교 광명병원,경기도 광명시 덕안로 110,37.4245797046,126.8859245166,true,true,00:00~00:00,2,1,4,true,false,2024-06-13
pd-272,도덕산공원쉼터(방문자센터),경기도 광명시 도덕로 86-1,37.4681252126,126.8576482333,true,true,00:00~00:00,2,3,4,true,true,2024-06-13
pd-273,철망산근린공원(장미배드민턴장),경기도 광명시 철망산로 48,37.4674358518,126.8732253548,false,true,00:00~00:00,1,1,2,true,false,2024-06-13
pd-274,클래시아,경기도 광명시 일직로12번길 24,37.4208628271,126.881841161,true,true,00:00~00:00,3,3,6,true,false,2024-06-13
pd-275,새광명주유소,경기도 광명시 시청로 115 (철산동),37.486540077,126.8656229567,false,true,00:00~00:00,1,2,1,false,true,2024-06-13
pd-276,목감천 공중화장실(철산화장실),경기도 광명시 철산동 9-207(광복교),37.4908671,126.8678945,true,true,00:00~00:00,1,2,2,true,true,2024-06-13
pd-277,광생주유소,경기도 광명시 광명로 856 (광명동),37.4754832682,126.8528460983,false,true,00:00~00:00,1,2,1,false,true,2024-06-13
pd-278,SK네트윅스㈜SK서탄주유소,경기도 평택시 서탄면 발안로 1177,37.13482,127.03062,true,true,상시,0,2,2,false,false,2025-07-01
pd-279,고덕파출소,"경기도 평택시 고덕면 고덕로 297(좌교리, 고덕파출소)",37.04311,127.01903,false,true,상시,1,2,2,false,false,2025-07-01
pd-280,율북체육공원,경기도 평택시 청북읍 율북리 1151,37.057366,126.979489,true,true,상시,1,3,4,true,false,2025-07-01
pd-281,생기자리근린공원,경기도 평택시 용죽2로 11,36.9961804,127.123579,true,true,상시,2,2,1,true,true,2025-07-01
pd-282,따비쉼터,경기도 평택시 안중읍 안중리279-5,36.98849,126.929099,false,true,상시,1,1,2,false,false,2025-07-01
pd-283,학현근린공원 테니스장,경기도 평택시 안중읍 서동대로 1501,36.9897621,126.917503,true,true,상시,4,3,6,true,true,2025-07-01
pd-284,원평동행정복지센터 1층,경기도 평택시 원평2로 9,36.9892779,127.080496,true,true,상시,2,2,3,false,false,2025-07-01
pd-285,송탄출장소 4층,"경기도 평택시 경기대로 1366, 평택시청 송탄출장소 (서정동)",37.0658115,127.06509,false,true,상시,1,2,2,false,true,2025-07-01
pd-286,현덕면 농민상담소,경기도 평택시 현덕면 인광길 84,36.9673,126.9215,false,true,(평일)09:00-18:00+(주말)09:00-18:00,0,1,1,false,false,2025-07-01
pd-287,동아에너지(서탄),경기도 평택시 서탄면 발안로 1177,37.13482,127.03062,false,true,상시,1,2,2,false,false,2025-07-01
pd-288,국제중앙시장 제2공영주차장,경기도 평택시 쇼핑로 36-14(신장동),37.0805243,127.053392,false,true,상시,1,2,2,true,false,2025-07-01
pd-289,상선주유소,경기도 평택시 청북읍 서해로 1914,37.05878,126.92429,false,true,(평일)09:00-18:00+(주말)09:00-18:00,2,1,2,true,false,2025-07-01
pd-290,소사벌 주유소,경기도 평택시 소사5길114,36.991835,127.126795,false,true,상시,3,2,3,true,true,2025-07-01
pd-291,터미날주유소,경기도 평택시 송탄로 337,37.0738247,127.058985,true,true,(평일)09:00-18:00+(주말)09:00-18:00,2,2,3,false,false,2025-07-01
pd-292,이충문화체육센터 공용 장애인 화장실(동쪽),경기도 평택시 장안웃길 149,37.0660578,127.07071,false,true,(평일)06:00-21:00+(주말)06:00-21:00,0,0,0,true,false,2025-07-01
pd-293,궁리근린공원,경기도 평택시 고덕면 효덕새싹길 71,37.02152,127.036316,true,true,상시,1,2,4,true,false,2025-07-01
pd-294,지산초록도서관(3층),경기도 평택시 지산로 48(3층),37.0789665,127.060341,true,true,(평일)09:00-22:00+(주말)09:00-22:00,2,3,5,false,false,2025-07-01
pd-295,평택시청 청사 화장실(신관 3층),경기도 평택시 경기대로 245,36.9922987,127.112525,false,true,(평일)09:00-18:00+(주말)09:00-18:00,5,7,7,false,false,2025-07-01
pd-296,청북읍 행정복지센터 1층,경기도 평택시 청북읍 청원로 2,37.0400724,126.934582,false,true,상시,2,4,4,false,false,2025-07-01
pd-297,이충문화체육센터 지상 1층(동쪽),경기도 평택시 장안웃길 149,37.0649523,127.079696,false,true,(평일)06:00-21:00+(주말)06:00-21:00,3,8,6,true,true,2025-07-01
pd-298,합정주유소,경기도 평택시 평택4로 28,36.990435,127.099952,false,true,상시,3,2,7,false,true,2025-07-01
pd-299,에이제이투탈㈜직영 남양주유소,경기도 평택시 포승읍 포승향남로 547,37.0044017,126.82761,false,true,상시,2,3,2,false,false,2025-07-01
pd-300,세라빌딩,경기도 평택시 평택로32번길 28,36.9911243,127.089485,false,true,상시,2,2,2,false,false,2025-07-01
pd-301,평택시평택보건소 B동 2층,경기도 평택시 평택5로 56,36.9908957,127.111969,true,true,(평일)09:00-18:00+(주말)09:00-18:00,2,2,2,false,false,2025-07-01
pd-302,이충레포츠공원 관리동 화장실,경기도 평택시 장안웃길 149,37.0660578,127.07071,false,true,상시,2,3,2,true,false,2025-07-01
pd-303,㈜스마트 오일,경기도 평택시 진위면 경기대로 1905,37.1145941,127.063214,false,true,상시,1,2,2,false,false,2025-07-01
pd-304,평택축산농협 이곡지점,경기도 평택시 만세로 1844,37.0047334,127.103127,true,true,상시,2,3,6,false,true,2025-07-01
pd-305,세교도서관(1층 자료실),경기도 평택시 은실고가길 180,37.0064126,127.078646,true,true,(평일)10:00-19:00+(주말)09:00-18:00,2,2,2,false,false,2025-07-01
pd-306,서정리역 공중화장실,경기도 평택시 탄현로 51,37.0570033,127.053006,false,true,상시,3,3,3,true,false,2025-07-01
pd-307,사군자근린공원,경기도 평택시 서재6길 2-57,37.010319,127.096771,true,true,상시,2,3,4,true,false,2025-07-01
pd-308,비둘기근린공원,경기도 평택시 청북읍 어연리 888,37.05025,126.97356,true,true,상시,2,3,3,true,false,2025-07-01
pd-309,자란 공영주차장,경기도 평택시 중앙로 53(비전동),36.9945714,127.089414,true,true,상시,4,4,4,true,false,2025-07-01
pd-310,오성도서관(1층),경기도 평택시 오성면 오성새싹길 3,37.007731,126.979738,false,true,(평일)09:00-18:00+(주말)09:00-18:00,1,1,2,false,false,2025-07-01
pd-311,진위체육공원 화장실,경기도 평택시 진위로 181-67,37.1062673,127.103093,false,true,상시,2,2,4,true,false,2025-07-01
pd-312,GS세교주유소,"경기도 평택시 동삭로 224, 세교주유소 (세교동)",37.0066724,127.090461,false,true,(평일)06:00-22:00+(주말)06:00-22:00,2,2,3,false,false,2025-07-01
pd-313,함박산중앙공원(스포츠필드) 3동,경기도 평택시 함박산로 166,37.042084,127.029833,true,true,상시,1,1,3,true,false,2025-07-01
pd-314,평택복합휴게소 평택(평택방향)주유소,경기도 평택시 청북읍 평택제천고속도로 6,37.0447491,126.944568,true,true,상시,2,4,0,true,false,2025-07-01
pd-315,안중농협 오성지점,경기도 평택시 오성면 숙성시장길 28,37.0073515,126.981191,false,true,상시,2,2,2,false,false,2025-07-01
pd-316,스타타운,경기도 평택시 오성면 서동대로 2052,37.0068083,126.970605,false,true,상시,1,1,1,true,false,2025-07-01
pd-317,금성셀프주유소,경기도 평택시 경기대로 1076,37.04303,127.06328,true,true,상시,3,4,5,false,false,2025-07-01
pd-318,두정보건진료소 1층,경기도 평택시 팽성읍 두정길 53,36.9448638,127.026034,false,true,(평일)09:00-18:00+(주말)09:00-18:00,1,1,1,false,false,2025-07-01
pd-319,원영빌딩,경기도 평택시 특구로 28,37.0680826,127.063518,false,true,(평일)09:00-18:00+(주말)09:00-18:00,1,1,2,false,false,2025-07-01
pd-320,덕목쉼터 화장실,경기도 평택시 현덕면 덕목리 1294-15,36.9574349,126.972022,true,true,상시,0,2,2,true,false,2025-07-01
pd-321,동방주유소,경기도 평택시 경기대로 1624,37.08926,127.06331,true,true,상시,4,3,2,false,false,2025-07-01
pd-322,성내치안센터,경기도 평택시 평택로 51 평택민자역사,36.9918974,127.083288,false,true,상시,2,2,2,true,true,2025-07-01
pd-323,이충실내배드민턴장 지상 1층,경기도 평택시 장안웃길 149,37.0660578,127.07071,true,true,(평일)06:00-21:00+(주말)06:00-21:00,2,3,4,false,false,2025-07-01
pd-324,평택시농업기술센터 농기계임대소 화장실,경기도 평택시 오성면 청오로 33-58,37.014331,126.980868,false,true,(평일)09:00-18:00,2,3,1,false,false,2025-07-01
pd-325,평택축협통북지점,경기도 평택시 평택1로 43,36.9959212,127.087643,false,true,상시,2,3,3,false,false,2025-07-01
pd-326,송탄시장 고객센터 화장실,경기도 평택시 탄현로346번길 46,37.0812068,127.056595,false,true,(평일)06:00-22:00+(주말)06:00-22:00,1,1,2,true,true,2025-07-01
pd-327,평택시평택보건소 C동 1층,경기도 평택시 평택5로 56,36.9908957,127.111969,false,true,(평일)09:00-18:00+(주말)09:00-18:00,1,1,2,false,false,2025-07-01
pd-328,모곡근린공원,경기도 평택시 산단로52번길 21,37.03534,127.07569,true,true,상시,2,2,1,true,false,2025-07-01
pd-329,차량등록사업소,경기도 평택시 도일유통길 13-9(도일동),37.0389047,127.098638,false,true,상시,1,2,1,false,false,2025-07-01
pd-330,팽성서부체육공원,경기도 평택시 팽성읍 본정2길 17-5,36.9505459,127.013399,false,true,(평일)09:00-18:00+(주말)09:00-18:00,3,2,3,false,false,2025-07-01
pd-331,도원LPG충전소,경기도 평택시 청원로 1630,37.044174,127.101662,false,true,상시,9,12,7,true,false,2025-07-01
pd-332,원평동사무소,경기도 평택시 원평2로 9,36.9892779,127.080496,false,true,상시,1,2,2,false,false,2025-07-01
pd-333,지산 LPG충전소,경기도 평택시 지산로 229,37.0786473,127.079641,false,true,상시,2,1,1,false,false,2025-07-01
pd-334,안중농협,경기도 평택시 안중읍 안중로100번길 38,36.9853221,126.927278,false,true,상시,1,2,2,false,false,2025-07-01
pd-335,서정근린공원,경기도 평택시 서정동 201-7,37.0631863,127.060873,false,true,상시,2,2,3,true,false,2025-07-01
pd-336,지산 제1공영주차장,경기도 평택시 지산2로 86(지산동),37.0792499,127.061325,false,true,상시,1,1,1,true,false,2025-07-01
pd-337,동흥빌딩,경기도 평택시 안중읍 안현로서8길 23,36.97914,126.92283,true,true,상시,3,3,5,false,false,2025-07-01
pd-338,세교도서관(1층 로비),경기도 평택시 은실고가길 180,37.0064126,127.078646,false,true,(평일)10:00-19:00+(주말)09:00-18:00,1,1,1,false,false,2025-07-01
pd-339,포승만세주유소,경기도 평택시 포승읍 서동대로 771,36.959186,126.856128,false,true,상시,1,1,1,false,false,2025-07-01
pd-340,오성산단근린공원,경기도 평택시 오성면 양교리 1095,37.024661,126.948945,false,true,(평일)09:00-22:00+(주말)09:00-22:00,1,2,2,true,false,2025-07-01
pd-341,제일주유소,경기도 평택시 평택로 120,36.9995345,127.080201,false,true,상시,2,1,2,true,false,2025-07-01
pd-342,팽성농협,경기도 평택시 팽성읍 등서촌로 90,36.9642592,127.062456,false,true,상시,1,1,2,false,false,2025-07-01
pd-343,부락종합사회복지관 1층,경기도 평택시 서정로 303,37.06479,127.06701,false,true,상시,2,1,2,false,false,2025-07-01
pd-344,월곡배수지 화장실,경기도 평택시 월곡동 477-1,37.0297757,127.137374,true,true,상시,1,0,2,true,true,2025-07-01
pd-345,SK네트윅스㈜삼성주유소,경기도 평택시 청북읍 청원로 158,37.03931,126.95134,true,true,상시,0,2,2,true,false,2025-07-01
pd-346,송탄시외버스,경기도 평택시 지산로 25,37.0799089,127.057356,false,true,상시,2,2,2,true,false,2025-07-01
pd-347,신대동공중화장실,경기도 평택시 신대동 578-3,36.9972463,127.076058,false,true,상시,1,2,3,true,false,2025-07-01
pd-348,배다리도서관(3층),경기도 평택시 죽백로 20,37.00232,127.11965,true,true,(평일)09:00-22:00+(주말)09:00-20:00,3,3,7,true,false,2025-07-01
pd-349,신평동주민센터(1층),경기도 평택시 평택3로 9,36.9900388,127.09265,true,true,(평일)09:00-18:00+(주말)09:00-18:00,2,2,2,false,false,2025-07-01
pd-350,현대오일뱅크㈜송탄현대주유소,경기도 평택시 청원로 1626,37.0438958,127.101129,true,true,상시,4,5,4,false,false,2025-07-01
pd-351,SK이에스주유소,경기도 평택시 동삭로 363,37.01879,127.09543,true,true,상시,2,2,4,false,false,2025-07-01
pd-352,평원주유소,경기도 평택시 포승읍 평택항로 158,36.9860424,126.85941,false,true,상시,1,2,2,false,false,2025-07-01
pd-353,평택축협 동삭지점,경기도 평택시 동삭로 368,37.0187783,127.096114,true,true,상시,3,4,3,false,false,2025-07-01
pd-354,무지개 어린이공원(공사중),경기도 평택시 비전동 852,36.991932,127.111282,false,true,상시,2,2,3,true,true,2025-07-01
pd-355,흔치휴게소(남),경기도 평택시 장안동 산 11-2,37.0687252,127.087906,false,true,상시,3,2,4,true,false,2025-07-01
pd-356,오성면사무소(2층),경기도 평택시 오성면 숙성시장길 23,37.0076959,126.980078,false,true,(평일)09:00-18:00+(주말)09:00-18:00,9,9,9,false,false,2025-07-01
pd-357,평택시선거관리위원회,경기도 평택시 송탄로 75,37.0519318,127.055263,false,true,상시,1,2,2,false,false,2025-07-01
pd-358,SK네트윅스㈜경기주유소,경기도 평택시 송탄로 81,37.05247,127.05532,true,true,상시,0,2,2,false,true,2025-07-01
pd-359,에스케이네트윅스㈜필립주유소,경기도 평택시 경기대로 572,37.0055727,127.084129,false,true,상시,3,3,3,false,false,2025-07-01
pd-360,긴둥골어린이공원 A,경기도 평택시 안중로18번길 18,36.9831293,126.926767,true,true,상시,2,4,3,true,false,2025-07-01
pd-361,송탄출장소 1층,"경기도 평택시 경기대로 1366, 평택시청 송탄출장소 (서정동)",37.0658115,127.06509,true,true,상시,2,2,2,false,false,2025-07-01
pd-362,마안산 등산로 화장실,경기도 평택시 현덕면 현덕로 748,36.9354387,126.958733,false,true,상시,2,3,4,true,false,2025-07-01
pd-363,오천(마산리)주유소,경기도 평택시 진위면 삼남로 691,37.0854204,127.090671,false,true,상시,1,2,2,true,false,2025-07-01
pd-364,중앙주유소,경기도 평택시 송탄고가길 95,37.0927297,127.066751,false,true,상시,1,1,2,false,false,2025-07-01
pd-365,청북주유소,경기도 평택시 청북읍 서해로 1562,37.0306813,126.939697,true,true,상시,0,0,3,false,false,2025-07-01
pd-366,동양고속버스,경기도 평택시 평택로39번길 40,36.99101,127.08695,false,true,상시,2,2,2,false,false,2025-07-01
pd-367,SK서평택LPG충전소,경기도 평택시 오성면 서동대로 1988,37.00524,126.96394,true,true,상시,1,1,3,false,true,2025-07-01
pd-368,GS평택항주유소,경기도 평택시 포승읍 포승향남로 228,36.99137,126.85802,false,true,상시,3,2,3,false,false,2025-07-01
pd-369,동양산업㈜직영신태평주유소,경기도 평택시 고덕면 서동대로 2633(방축리),37.01583,127.03239,true,true,상시,3,3,4,true,true,2025-07-01
pd-370,안중체육관 1층,경기도 평택시 안중읍 학현리 496,36.990148,126.921662,false,true,(평일)06:00-22:00+(주말)06:00-22:00,6,6,16,true,true,2025-07-01
pd-371,안중제일신협 안중지점,경기도 평택시 안중읍 안중로99번길 15,36.9844305,126.929446,false,true,상시,2,2,4,false,false,2025-07-01
pd-372,진위면사무소 2층,경기도 평택시 진위면 봉남길 61,37.0854204,127.090671,false,true,(평일)09:00-18:00+(주말)09:00-18:00,1,2,2,false,false,2025-07-01
pd-373,배다리생태공원 주차장,경기도 평택시 죽백6로 20,37.00232,127.11965,true,true,상시,1,2,4,true,false,2025-07-01
pd-374,평택시농업기술센터 축산창고,경기도 평택시 오성면 청오로 33-58,37.014331,126.980868,false,true,(평일)09:00-18:00,0,0,0,false,false,2025-07-01
pd-375,이화 근린공원,경기도 평택시 이화로 28,36.9998548,127.145106,true,true,상시,2,2,4,true,true,2025-07-01
pd-376,원평 제2공영주차장,경기도 평택시 원평로52번길 10 (평택동),36.9909845,127.08413,true,true,상시,1,2,3,true,true,2025-07-01
pd-377,북부문예회관,경기도 평택시 경기대로 1366,37.065837,127.065041,false,true,(평일)09:00-22:00+(주말)09:00-22:00,10,15,16,true,false,2025-07-01
pd-378,중앙동 행정복지센터 2층,경기도 평택시 서정역로 16,37.0555584,127.056053,true,true,상시,2,3,2,false,false,2025-07-01
pd-379,국민은행 오산기지출장소,경기도 평택시 탄현로 267-30,37.07682,127.055,false,true,상시,1,2,1,false,false,2025-07-01
pd-380,평택대교 쉼터 화장실,경기도 평택시 팽성읍 도두리 296-3,36.9578518,126.985912,true,true,상시,0,2,2,true,false,2025-07-01
pd-381,금영주유소,경기도 평택시 진위면 경기대로 1786,37.10375,127.06395,true,true,상시,4,7,11,false,false,2025-07-01
pd-382,송북시장 공중화장실,경기도 평택시 탄현로346번길 24,37.0821058,127.057024,false,true,상시,2,3,5,false,false,2025-07-01
pd-383,신장2동 주민센터 화장실(2층),경기도 평택시 밀월로 21번길 7,37.0764515,127.052434,true,true,(평일)09:00-18:00+(주말)09:00-18:00,0,0,5,true,false,2025-07-01
pd-384,IBK기업은행 서정리역지점,경기도 평택시 정암로 41,37.05687,127.05851,true,true,상시,3,6,11,false,false,2025-07-01
pd-385,통복동주민센터,경기도 평택시 통복시장로48번길 41,37.0007981,127.087277,true,true,(평일)09:00-18:00+(주말)09:00-18:00,4,4,8,true,false,2025-07-01
pd-386,송탄농협 중앙지점,경기도 평택시 송탄로 421,37.0812238,127.057681,true,true,상시,3,8,7,false,false,2025-07-01
pd-387,스마트주유소,경기도 평택시 경기대로 1245,37.0574449,127.061428,false,true,(평일)09:00-18:00+(주말)09:00-18:00,1,1,1,false,false,2025-07-01
pd-388,학현근린공원 씨름장,경기도 평택시 안중읍 서동대로 1501,36.9897621,126.917503,true,true,상시,4,3,6,true,false,2025-07-01
pd-389,현화토지투자컨설팅,경기도 평택시 안중읍 송담3로 56-15,36.97988,126.9355,true,true,(평일)06:00-21:00+(주말)06:00-21:00,1,2,2,false,false,2025-07-01
pd-390,포승주유소,경기도 평택시 포승읍 서동대로 1179,36.9846311,126.884218,false,true,상시,1,2,2,false,false,2025-07-01
pd-391,점촌어린이공원,경기도 평택시 점촌로 7,37.0635323,127.0547,true,true,상시,0,1,2,true,false,2025-07-01
pd-392,신한은행 송탄지점,경기도 평택시 경기대로 1375,37.0677303,127.063782,false,true,상시,1,1,1,false,false,2025-07-01
pd-393,신장1동 행정복지센터(2층),경기도 평택시 신장로90번길 63,37.0839628,127.052388,false,true,(평일)09:00-18:00+(주말)09:00-18:00,2,3,2,false,false,2025-07-01
pd-394,영차주유소,경기도 평택시 오성면 청오로 253,37.0284473,126.974022,true,true,상시,1,2,0,false,true,2025-07-01
pd-395,장당근린공원,경기도 평택시 이충동615,37.0508543,127.057309,true,true,상시,2,3,4,true,false,2025-07-01
pd-396,소풍정원 배화장실,경기도 평택시 고덕면 궁리424-40,37.011845,127.020578,true,true,상시,2,7,12,true,false,2025-07-01
pd-397,인광근린공원,경기도 평택시 송담2로 6,36.9760635,126.92671,false,true,상시,2,1,2,true,true,2025-07-01
pd-398,숙성체육공원,경기도 평택시 오성면 숙성시장길54-7,37.0077947,126.98376,false,true,상시,1,2,1,false,true,2025-07-01
pd-399,㈜성림에너지 삼상충전소(태원),경기도 평택시 평택로 292,37.0094101,127.073079,false,true,상시,2,0,2,false,false,2025-07-01
pd-400,솔숲근린공원,경기도 평택시 소사동 산13-1,36.9903331,127.13035,true,true,상시,1,3,4,true,true,2025-07-01
pd-401,건강보험공단 평택지사 2층,경기도 평택시 고덕갈평5길 27,37.056,127.04868,false,true,상시,1,2,2,false,false,2025-07-01
pd-402,안중도서관(3층),경기도 평택시 안중읍 서동대로 1531,36.9901366,126.920152,true,true,(평일)09:00-22:00+(주말)09:00-22:00,2,4,6,false,false,2025-07-01
pd-403,물놀이장 화장실,경기도 평택시 진위면 마산리 961,37.09816,127.08642,false,true,(평일)09:00-18:00+(주말)09:00-18:00,16,18,24,true,false,2025-07-01
pd-404,세교 근린공원,경기도 평택시 세교1로 36,37.0025915,127.083757,false,true,(평일)09:00-22:00+(주말)09:00-22:00,3,3,3,true,true,2025-07-01
pd-405,평택시어린이교통공원,경기도 평택시 안중읍 현화6길48,36.992816,126.915523,true,true,(평일)09:00-18:00+(주말)09:00-18:00,5,7,12,false,false,2025-07-01
pd-406,송탄농협 이충지점,경기도 평택시 이충로 49-29,37.0601905,127.065717,false,true,상시,3,3,6,false,false,2025-07-01
pd-407,이충문화체육센터 지상 1층(서쪽),경기도 평택시 장안웃길 149,37.0649523,127.079696,false,true,(평일)06:00-21:00+(주말)06:00-21:00,4,4,4,true,true,2025-07-01
pd-408,물장구 어린이공원,경기도 평택시 비전동 1087,36.9885,127.11624,true,true,상시,1,2,4,true,false,2025-07-01
pd-409,구조구급대,경기도 평택시 평택로 2,36.98864,127.09024,false,true,상시,1,2,1,false,false,2025-07-01
pd-410,노와이주단지 체육공원,경기도 평택시 팽성읍 대추안길 5-1,36.947,127.08997,false,true,상시,1,2,3,true,true,2025-07-01
pd-411,중도석유㈜,경기도 평택시 진위면 남부대로 613,37.1250175,127.098457,true,true,상시,2,3,4,false,false,2025-07-01
pd-412,평택현대주유소,경기도 평택시 경기대로 1577,37.0852441,127.062032,false,true,상시,2,2,2,false,false,2025-07-01
pd-413,부락산문화공원 산림체험장,경기도 평택시 지산로140번길 264,37.06479,127.06701,true,true,상시,1,3,4,true,false,2025-07-01
pd-414,농협중앙회 평택기업금융지점,경기도 평택시 경기대로 1194 장당프라자 1층,37.05298,127.06037,false,true,상시,2,3,2,true,false,2025-07-01
pd-415,서정시장 공영주차장,경기도 평택시 서정역로 37(서정동),37.0573973,127.055528,false,true,상시,2,2,4,true,true,2025-07-01
pd-416,장당도서관(4층),경기도 평택시 장당길 116,37.0528596,127.065229,true,true,(평일)08:00-24:00+(주말)08:00-24:00,2,1,3,true,false,2025-07-01
pd-417,부영상가,경기도 평택시 세교공원로 66,37.00395,127.0845,true,true,상시,2,3,3,false,false,2025-07-01
pd-418,우진주유소,경기도 평택시 서탄면 정문회화로 497,37.0973631,127.030565,true,true,상시,1,2,2,true,false,2025-07-01
pd-419,포승 레포츠 공원,경기도 평택시 포승읍 서동대로 1174-16,36.9828199,126.88531,true,true,상시,2,7,5,true,false,2025-07-01
pd-420,신캠핑장(제2캠핑장)화장실,경기도 평택시 진위면 견산리 152-2,37.09816,127.08642,false,true,(평일)09:00-18:00+(주말)09:00-18:00,3,2,1,true,false,2025-07-01
pd-421,덕산빌딩,"경기도 평택시 관광특구로 37(서정동, 덕산빌딩)",37.06694,127.06295,false,true,상시,3,6,5,false,false,2025-07-01
pd-422,팽성파출소,경기도 평택시 팽성읍 등서촌로 93,36.9647035,127.062493,false,true,상시,1,1,1,true,false,2025-07-01
pd-423,평택시생명농업센터,경기도 평택시 오성면 청오로 33-58,37.014331,126.980868,true,true,(평일)09:00-18:00,4,7,11,false,false,2025-07-01
pd-424,만호LPG충전소,경기도 평택시 포승읍 서동대로 771,36.95916,126.85609,false,true,상시,1,2,2,false,false,2025-07-01
pd-425,고동주유소,경기도 평택시 청북읍 서해로 1449,37.02151,126.94287,false,true,상시,1,2,2,false,false,2025-07-01
pd-426,이음근린공원,경기도 평택시 함박산12길 5,37.043296,127.025056,true,true,상시,1,1,3,true,false,2025-07-01
pd-427,국제대교 화장실,경기도 평택시 현덕면 광덕계양로 619,36.9418538,126.978181,true,true,상시,0,2,2,true,false,2025-07-01
pd-428,포승읍사무소,경기도 평택시 포승읍 서동대로 1174-16,36.9828199,126.88531,true,true,상시,8,12,9,false,false,2025-07-01
pd-429,송탄역 맞이방 고객화장실,경기도 평택시 송탄공원로 43,37.0752833,127.054299,false,true,상시,1,2,1,false,false,2025-07-01
pd-430,송탄새마을금고,경기도 평택시 지산로12번길 29,37.0778074,127.05634,false,true,상시,1,1,1,false,false,2025-07-01
pd-431,현덕파출소,경기도 평택시 현덕면 안현로 144,36.9647526,126.918625,false,true,상시,2,2,2,true,false,2025-07-01
pd-432,안중레포츠공원 화장실,경기도 평택시 안중읍 학현리 573,36.994106,126.917359,true,true,상시,3,4,3,true,true,2025-07-01
pd-433,㈜승일주유소,경기도 평택시 송탄로 240,37.0651709,127.058558,false,true,상시,1,1,1,false,false,2025-07-01
pd-434,주식회사현곡,경기도 평택시 청북읍 청원로 27,37.0407344,126.936907,false,true,상시,1,2,2,false,false,2025-07-01
pd-435,상서재서초근린,경기도 평택시 상서재로2길 89,37.0185387,127.105061,true,true,상시,1,2,4,true,true,2025-07-01
pd-436,진위면사무소 1층,경기도 평택시 진위면 봉남길 61,37.1000849,127.090888,true,true,(평일)09:00-18:00+(주말)09:00-18:00,1,2,2,true,false,2025-07-01
pd-437,가야주유소,경기도 평택시 진위면 경기대로 1905,37.1145,127.06333,false,true,상시,2,4,6,false,false,2025-07-01
pd-438,송탄동주민센터 1충,경기도 평택시 방여울로 117,37.0444046,127.094851,false,true,(평일)09:00-18:00+(주말)09:00-18:00,2,2,2,false,false,2025-07-01
pd-439,농협중앙회 안정지점,경기도 평택시 팽성읍 안정쇼핑로 40,36.96118,127.04655,false,true,상시,3,3,3,false,false,2025-07-01
pd-440,서정리시장공중화장실,경기도 평택시 서정역로47번길 7,37.057772,127.055199,false,true,상시,2,3,2,true,false,2025-07-01
pd-441,포승행복주유소,경기도 평택시 포승읍 포승공단로 68,36.9778933,126.843359,false,true,상시,1,1,1,false,true,2025-07-01
pd-442,안중충전소,경기도 평택시 안중읍 안현로 544,36.9961314,126.937742,false,true,(평일)09:00-22:00+(주말)09:00-22:00,2,2,3,false,false,2025-07-01
pd-443,안정근린공원-테니스장,경기도 평택시 안정순환로267번길 42,36.9606972,127.053128,true,true,상시,2,3,4,true,false,2025-07-01
pd-444,가로수빌딩1층,"경기도 평택시 비전5로 20-18, 가로수빌딩 (비전동)",36.99903,127.11357,false,true,상시,2,1,1,false,false,2025-07-01
pd-445,서정침례교회,경기도 평택시 서정역로26번길 24-12,37.0557194,127.05658,true,true,상시,2,3,5,false,false,2025-07-01
pd-446,신흥문화공원,경기도 평택시 신흥1로1길 21,37.0011567,127.145748,true,true,상시,1,2,4,true,true,2025-07-01
pd-447,대길주유소,경기도 평택시 포승읍 포승향남로 384,36.99812,126.84328,false,true,상시,7,7,6,true,false,2025-07-01
pd-448,평택시청 청사 화장실(본관 지하층),경기도 평택시 경기대로 245,36.9922987,127.112525,false,true,(평일)09:00-18:00+(주말)09:00-18:00,3,6,3,false,false,2025-07-01
pd-449,동부 근린공원,경기도 평택시 동부공원로 58,36.99512,127.11841,false,true,상시,2,3,4,true,true,2025-07-01
pd-450,평택시평택보건소 A동 1층,경기도 평택시 평택5로 56,36.9908957,127.111969,true,true,(평일)09:00-18:00+(주말)09:00-18:00,1,1,2,false,false,2025-07-01
pd-451,송탄농협 진위지점,경기도 평택시 진위면 경기대로 1840-1,37.1089455,127.064571,true,true,상시,2,4,5,false,false,2025-07-01
pd-452,부락산문화공원 관리실,경기도 평택시 지산로140번길 194,37.06479,127.06701,true,true,상시,2,3,6,true,false,2025-07-01
pd-453,평택시의회 화장실 1층,"경기도 평택시 경기대로 1366, 평택시청 송탄출장소 (서정동)",37.0658115,127.06509,false,true,상시,1,2,2,false,true,2025-07-01
pd-454,배다리생태공원 영상정보사업소,경기도 평택시 죽백6로 20,37.00232,127.11965,true,true,상시,2,2,4,true,false,2025-07-01
pd-455,신평동주민센터(2층),경기도 평택시 평택3로 9,36.9900388,127.09265,false,true,(평일)09:00-18:00+(주말)09:00-18:00,0,0,1,false,false,2025-07-01
pd-456,상서재2호수변,경기도 평택시 동삭동 870,37.0170216,127.106256,true,true,상시,1,2,4,true,true,2025-07-01
pd-457,배다리도서관(1층),경기도 평택시 죽백로 20,37.00232,127.11965,true,true,(평일)09:00-22:00+(주말)09:00-20:00,3,3,6,true,true,2025-07-01
pd-458,신장근린공원 게이트볼장,경기도 평택시 신장동 370-2,37.0858935,127.051197,false,true,상시,1,1,1,true,false,2025-07-01
pd-459,비전빌딩,경기도 평택시 평택1로 48,36.99629,127.08809,false,true,상시,1,1,2,false,false,2025-07-01
pd-460,KB증권빌딩,경기도 평택시 중앙2로 47,36.99142,127.09236,false,true,상시,4,4,4,false,false,2025-07-01
pd-461,SK네트윅스㈜평택항주유소,경기도 평택시 포승읍 포승공단로 240,36.98528,126.85991,true,true,상시,0,0,1,false,false,2025-07-01
pd-462,무봉산청소년수련원 본관 1층,경기도 평택시 진위면 진위로 181-94,37.106906,127.096948,true,true,(평일)09:00-18:00+(주말)09:00-18:00,3,4,3,false,true,2025-07-01
pd-463,통복시장 공중화장실(공영주차장 맞은편),경기도 평택시 통복시장로21번길 13,36.9972441,127.084621,false,true,상시,0,3,0,true,false,2025-07-01
pd-464,통복 어린이공원,경기도 평택시 통복동 중앙1로 21,36.9984234,127.085552,true,true,(평일)09:00-18:00+(주말)09:00-18:00,2,2,4,true,true,2025-07-01
pd-465,송탄근린공원 국궁장 화장실,경기도 평택시 서정북로 125번길 69,37.073848,127.06227,false,true,상시,1,2,2,true,false,2025-07-01
pd-466,사랑의주유소,경기도 평택시 팽성읍 팽성북로 415,36.98175,127.07853,true,true,상시,2,3,3,true,false,2025-07-01
pd-467,농업생태원 관리창고동,경기도 평택시 오성면 청오로 33-34,37.014978,126.983527,true,true,(평일)09:30-18:00+(주말)09:30-18:00,0,0,1,false,false,2025-07-01
pd-468,수촌근린공원,경기도 평택시 청북읍 안청로 1길 37,37.015641,126.912132,true,true,상시,3,4,7,true,false,2025-07-01
pd-469,송탄출장소 3층,"경기도 평택시 경기대로 1366, 평택시청 송탄출장소 (서정동)",37.0658115,127.06509,false,true,상시,2,2,3,false,false,2025-07-01
pd-470,신당근린공원 관리사무소,경기도 평택시 평택항로 98,36.9700505,126.847489,false,true,상시,1,2,1,true,false,2025-07-01
pd-471,비전1동 주민센터 3층,경기도 평택시 비전2로 330,37.01102,127.11197,false,true,(평일)09:00-18:00+(주말)09:00-18:00,2,2,2,true,false,2025-07-01
pd-472,송탄농협 지장지점,경기도 평택시 서정북로 77,37.0709495,127.05798,false,true,상시,4,4,4,false,false,2025-07-01
pd-473,평택시청소년문화센터 청소년체육관,경기도 평택시 평남로 616,36.988644,127.108854,true,true,(평일)08:30-20:50+(주말)08:30-20:50,7,6,9,true,false,2025-07-01
pd-474,평택시의회 화장실 2층,"경기도 평택시 경기대로 1366, 평택시청 송탄출장소 (서정동)",37.0658115,127.06509,false,true,(평일)09:00-18:00+(주말)09:00-18:00,3,3,4,true,false,2025-07-01
pd-475,향촌 어린이공원(공사중),경기도 평택시 세교동 560-1,37.0018852,127.079324,false,true,상시,0,0,0,true,true,2025-07-01
pd-476,조이에너지오성LPG충전소,경기도 평택시 오성면 오성서로 5,37.0057981,126.965874,false,true,상시,2,3,3,false,false,2025-07-01
pd-477,신장2동 주민센터 화장실(1층),경기도 평택시 밀월로 21번길 7,37.0764515,127.052434,true,true,상시,0,3,6,true,false,2025-07-01
pd-478,오성도서관(2층),경기도 평택시 오성면 오성새싹길 3,37.007731,126.979738,true,true,(평일)09:00-22:00+(주말)09:00-22:00,1,4,2,false,false,2025-07-01
pd-479,하나은행 평택지점,경기도 평택시 평택1로 5,36.9925441,127.086642,false,true,상시,1,1,1,false,false,2025-07-01
pd-480,평택농협 세교지점,경기도 평택시 세교로 39,37.0040142,127.079866,false,true,상시,2,3,4,false,false,2025-07-01
pd-481,동말근린공원(댕당근린공원),경기도 평택시 고덕동 2388,37.059513,127.029003,true,true,상시,2,3,8,true,false,2025-07-01
pd-482,소사벌레포츠타운(천연잔디구장),경기도 평택시 평남로 616,36.9875654,127.106511,true,true,상시,3,4,3,true,true,2025-07-01
pd-483,평택축산업협동조합,경기도 평택시 평남로 725,36.9949415,127.114549,true,true,상시,1,1,2,false,false,2025-07-01
pd-484,하날 근린공원,경기도 평택시 비전4로 83,37.0039036,127.111339,true,true,상시,1,2,4,true,true,2025-07-01
pd-485,㈜봉남주유소,경기도 평택시 진위면 봉남길 6,37.1020875,127.085466,false,true,상시,4,2,4,false,false,2025-07-01
pd-486,현촌한마음공원,경기도 평택시 현촌4길 2-18,36.999175,127.134116,true,true,상시,1,2,3,true,true,2025-07-01
pd-487,하나은행 포승공단지점,경기도 평택시 포승읍 평택항로 184번길 38,36.9746298,126.845542,false,true,상시,2,1,2,false,false,2025-07-01
pd-488,씨유 서동대로점 화장실,경기도 평택시 포승읍 서동대로 543,36.9448431,126.873768,false,true,상시,2,2,2,false,false,2025-07-01
pd-489,함박산중앙공원(모래놀이터) 4동,경기도 평택시 함박산로 246,37.043924,127.030208,true,true,상시,1,1,3,true,false,2025-07-01
pd-490,긴등골어린이공원 B,경기도 평택시 안중읍 안중로18번길 18,36.98314,126.92676,false,true,상시,2,2,2,true,false,2025-07-01
pd-491,관리동 화장실,경기도 평택시 진위면 진위서로 264-15,37.09816,127.08642,false,true,(평일)09:00-18:00+(주말)09:00-18:00,7,7,9,true,false,2025-07-01
pd-492,제1별관 1층 화장실,경기도 평택시 경기대로 245,36.991043,127.112605,true,true,(평일)09:00-18:00+(주말)09:00-18:00,1,4,4,false,false,2025-07-01
pd-493,도일주유소,경기도 평택시 도일로 201(도일동),37.0558,127.1153,false,true,상시,1,2,1,false,false,2025-07-01
pd-494,국민은행 송탄지점,경기도 평택시 탄현로 320,37.0809,127.05574,false,true,상시,1,1,2,false,false,2025-07-01
pd-495,우리은행 안중지점,경기도 평택시 안중읍 안현로서6길 38,36.9848032,126.925129,true,true,상시,3,4,7,true,false,2025-07-01
pd-496,이충문화체육센터 A,경기도 평택시 장안웃길 149,37.0660578,127.07071,false,true,상시,2,2,2,true,false,2025-07-01
pd-497,송탄소방서,경기도 평택시 경기대로 1627,37.0896975,127.062222,false,true,상시,3,3,3,false,false,2025-07-01
pd-498,장안하늘채근린공원,경기도 평택시 장안동 621,37.0572165,127.077844,false,true,상시,3,2,4,true,false,2025-07-01
pd-499,청북119안전센타,경기도 평택시 청북읍 현곡산단로 16,37.0337297,126.939209,true,true,상시,2,2,2,false,false,2025-07-01
pd-500,용죽역사공원,경기도 평택시 용죽1로 72,36.9975436,127.126489,true,true,상시,2,2,5,true,true,2025-07-01
pd-501,서정관광특구 공영주차장,경기도 평택시 관광특구로 27 (서정동),37.0670626,127.062068,true,true,상시,2,2,2,true,false,2025-07-01
pd-502,SK송탄충전소,경기도 평택시 탄현로 400,37.08687,127.06067,true,true,상시,1,1,5,false,false,2025-07-01
pd-503,세교동행정복지센터 1층,경기도 평택시 세교3로 37,36.9999552,127.082418,false,true,상시,2,1,2,true,false,2025-07-01
pd-504,서해안주유소,경기도 평택시 현덕면 서해로 517,36.9465618,126.91231,false,true,상시,2,2,2,false,false,2025-07-01
pd-505,동남제1주유소,경기도 평택시 청원로 1655,37.04429,127.10444,false,true,상시,2,3,2,false,false,2025-07-01
pd-506,미라클상가,경기도 평택시 평택로 23,36.98978,127.08845,false,true,상시,2,2,2,false,false,2025-07-01
pd-507,현화근린공원,경기도 평택시 안중읍 안현로서8길 48,36.9805312,126.920402,true,true,상시,2,3,2,true,false,2025-07-01
pd-508,대성산업(주)평택주유소,경기도 평택시 경기대로 1232 (이충동),37.0563,127.06125,false,true,상시,7,7,11,false,false,2025-07-01
pd-509,부락산근린공원(이충분수),경기도 평택시 서정로 303,37.06479,127.06701,true,true,상시,3,4,4,true,false,2025-07-01
pd-510,통복천체육공원,경기도 평택시 통복동 11-3,37.00144,127.087419,false,true,상시,2,3,3,false,true,2025-07-01
pd-511,민영주유소,경기도 평택시 삼남로 360,37.0578,127.09453,false,true,상시,1,1,2,true,false,2025-07-01
pd-512,흔치휴게소,경기도 평택시 장안웃길 56-88(장안동),37.0645081,127.080787,true,true,상시,1,1,3,true,false,2025-07-01
pd-513,sk어연공단주유소,경기도 평택시 청북읍 청원로 390,37.04812,126.97308,true,true,상시,2,3,0,false,false,2025-07-01
pd-514,장당도서관(1층),경기도 평택시 장당길 116,37.0528596,127.065229,false,true,(평일)09:00-22:00+(주말)09:00-22:00,1,1,1,false,false,2025-07-01
pd-515,안중도서관(4층),경기도 평택시 안중읍 서동대로 1531,36.9901366,126.920152,false,true,(평일)09:00-22:00+(주말)09:00-22:00,2,3,2,false,false,2025-07-01
pd-516,지산동 주민센터 2층,경기도 평택시 송탄로 379,37.0774061,127.057582,true,true,(평일)09:00-18:00+(주말)09:00-18:00,1,2,3,false,false,2025-07-01
pd-517,평택시청 청사 화장실(본관 1층 민원실 앞),경기도 평택시 경기대로 245,36.9922987,127.112525,true,true,(평일)09:00-18:00+(주말)09:00-18:00,1,3,3,false,false,2025-07-01
pd-518,배다리생태공원 광장,경기도 평택시 죽백6로 20,37.00232,127.11965,true,true,상시,1,2,4,true,false,2025-07-01
pd-519,하이존 1,경기도 평택시 이충로 49-25,37.060337,127.066158,false,true,상시,1,1,2,false,false,2025-07-01
pd-520,하나주유소,경기도 평택시 경기대로 1280,37.0596953,127.064566,false,true,상시,1,2,1,false,true,2025-07-01
pd-521,송탄출장소 2층,"경기도 평택시 경기대로 1366, 평택시청 송탄출장소 (서정동)",37.0658115,127.06509,false,true,상시,2,3,2,false,false,2025-07-01
pd-522,장당도서관(3층),경기도 평택시 장당길 116,37.0528596,127.065229,true,true,(평일)08:00-24:00+(주말)08:00-24:00,2,2,3,false,false,2025-07-01
pd-523,소사벌레포츠타운(인라인스케이트장),경기도 평택시 평남로 616,36.9875654,127.106511,true,true,상시,2,2,4,true,false,2025-07-01
pd-524,현대오일뱅크㈜ 만남주유소,경기도 평택시 안중읍 서동대로 1456,36.990245,126.913146,false,true,(평일)09:00-18:00+(주말)09:00-18:00,2,2,2,false,true,2025-07-01
pd-525,이충실내배드민턴장 지상 1층(씨름장),경기도 평택시 장안웃길 149,37.0649523,127.079696,false,true,(평일)06:00-21:00+(주말)06:00-21:00,1,0,2,false,false,2025-07-01
pd-526,신대레포츠공원,경기도 평택시 평남로 178-70,36.9939333,127.064635,true,true,상시,1,4,2,true,false,2025-07-01
pd-527,평택호자동차극장,경기도 평택시 현덕면 평택호길 159,36.9214415,126.922225,false,true,상시,1,2,2,true,false,2025-07-01
pd-528,구캠핑장(제1캠핑장) 화장실,경기도 평택시 진위면 견산리 150-1,37.09816,127.08642,false,true,(평일)09:00-18:00+(주말)09:00-18:00,1,0,1,true,false,2025-07-01
pd-529,농협중앙회 평택항출장소,경기도 평택시 포승읍 평택항만길 73,36.95761,126.84821,false,true,상시,5,5,5,false,false,2025-07-01
pd-530,안중시장 고객센터 화장실,경기도 평택시 안중읍 안현로서3길 34,36.9876616,126.927666,true,true,(평일)07:00-20:00+(주말)07:00-20:00,1,2,1,true,true,2025-07-01
pd-531,부락산근린공원(야외무대),경기도 평택시 이충동 279-1,37.06479,127.06701,false,true,상시,2,2,2,true,false,2025-07-01
pd-532,토끼와거북이주유소,경기도 평택시 진위면 진위서로 129,37.1068598,127.07747,true,true,상시,0,0,8,false,false,2025-07-01
pd-533,충의근린공원,경기도 평택시 이충동692,37.0594875,127.071124,false,true,상시,1,2,2,true,false,2025-07-01
pd-534,고덕 수변공원 12호,경기도 평택시 고덕국제2로 50,37.04723,127.04721,true,true,상시,2,4,8,true,false,2025-07-01
pd-535,금각리 공중화장실,경기도 평택시 서탄면 용소금각로 392,37.07301,127.00654,true,true,상시,6,4,5,true,false,2025-07-01
pd-536,안중주유소,경기도 평택시 안중읍 안현로 348,36.9812929,126.92807,false,true,상시,1,2,2,false,false,2025-07-01
pd-537,평택국제중앙시장 고객센터 화장실,경기도 평택시 중앙시장로 16,37.0798795,127.052194,true,true,상시,1,1,2,true,true,2025-07-01
pd-538,신한은행 평택지점,경기도 평택시 중앙로 52,36.9942997,127.088942,true,true,상시,1,3,1,false,false,2025-07-01
pd-539,㈜복면주유소,경기도 평택시 남북대로 910(청룡동),37.031167,127.130579,false,true,상시,2,2,2,false,false,2025-07-01
pd-540,안중농협 청북지점,경기도 평택시 청북읍 신포길 52,37.0405859,126.933831,false,true,상시,2,3,2,false,false,2025-07-01
pd-541,광덕크린주유소,경기도 평택시 진위면 엘지로 74,37.12486,127.0736,false,true,상시,2,3,2,false,false,2025-07-01
pd-542,안중읍 행정복지센터 화장실 1층,경기도 평택시 안중읍 안현로 400,36.9856239,126.931996,true,true,(평일)09:00-18:00+(주말)09:00-18:00,3,3,3,false,false,2025-07-01
pd-543,학현근린공원 네트어드벤처,경기도 평택시 안중읍 서동대로 1501,36.9897621,126.917503,false,true,상시,2,1,2,true,false,2025-07-01
pd-544,평택시립비전도서관(3층),경기도 평택시 비전로 27,36.9958894,127.093711,false,true,(평일)09:00-24:00+(주말)09:00-24:00,2,2,4,true,false,2025-07-01
pd-545,S-OIL 대호페트로갤러리주유소평택점,경기도 평택시 진위면 남부대로 597,37.12616,127.09709,false,true,상시,1,2,1,false,false,2025-07-01
pd-546,합정sk뷰주상복합 상가 1동/2동,경기도 평택시 중앙로 176 합정sk뷰,36.9915066,127.101938,false,true,(평일)09:00-18:00+(주말)09:00-18:00,1,2,1,false,false,2025-07-01
pd-547,진영빌딩,경기도 평택시 경기대로 1377,37.0680936,127.063822,false,true,상시,2,3,4,false,false,2025-07-01
pd-548,팽성농협 안송지점,경기도 평택시 팽성읍 안정로21번길 32,36.9603652,127.045993,false,true,(평일)09:00-22:00+(주말)09:00-22:00,3,3,3,false,false,2025-07-01
pd-549,청북읍 행정복지센터 3층,경기도 평택시 청북읍 청원로 2,37.0400724,126.934582,false,true,(평일)09:00-18:00+(주말)09:00-18:00,3,4,4,false,false,2025-07-01
pd-550,평택중앙새마을금고,경기도 평택시 중앙2로 7,36.9919189,127.087769,true,true,상시,7,7,13,true,false,2025-07-01
pd-551,한길주유소,경기도 평택시 고덕면 서동대로 2531(궁리),37.0179003,127.020905,false,true,(평일)09:00-22:00+(주말)09:00-22:00,1,1,1,false,false,2025-07-01
pd-552,sk평택항주유소,"경기도 평택시 포승읍 포승공단로 240, sk평택항주유소",36.98528,126.85991,false,true,상시,1,2,1,false,false,2025-07-01
pd-553,명품주유소,경기도 평택시 경기대로 969,37.036053,127.069618,false,true,상시,1,2,1,true,false,2025-07-01
pd-554,청솔 어린이 공원,경기도 평택시 세교동 557-1,37.0033216,127.083122,false,true,상시,3,3,3,false,false,2025-07-01
pd-555,텍사스주유소,경기도 평택시 탄현로 192,37.0697848,127.054854,false,true,상시,9,9,8,false,false,2025-07-01
pd-556,안중체육관 2층,경기도 평택시 안중읍 학현리 496,36.990148,126.921662,false,true,(평일)06:00-22:00+(주말)06:00-22:00,8,10,8,true,true,2025-07-01
pd-557,안중제일신협 포승지점,경기도 평택시 포승읍 여술1길 80,36.9894839,126.843289,true,true,상시,2,3,5,false,false,2025-07-01
pd-558,평택농협주유소,경기도 평택시 만세로 1649,37.0177444,127.117524,false,true,상시,1,3,4,false,false,2025-07-01
pd-559,동영산업㈜직영안일주유소,경기도 평택시 안중읍 서동대로 1736,36.9911,126.94251,true,true,상시,1,2,1,false,true,2025-07-01
pd-560,남산근린공원 게이트볼장,경기도 평택시 팽성읍 송화택지로 109,36.96156,127.06213,false,true,상시,2,3,3,true,false,2025-07-01
pd-561,장터골어린이공원,경기도 평택시 안중읍 현화리 843-3,36.983101,126.923328,false,true,상시,2,1,3,true,false,2025-07-01
pd-562,대원주유소,경기도 평택시 지산찬로 90,37.0843,127.05847,false,true,상시,2,3,2,false,true,2025-07-01
pd-563,백련주유소,경기도 평택시 청원로 1394,37.05224,127.07769,false,true,상시,2,2,2,false,false,2025-07-01
pd-564,서정리 야외쉼터 화장실,경기도 평택시 서정역로47번길 14-9,37.0575778,127.054778,false,true,상시,1,1,1,true,false,2025-07-01
pd-565,추팔리 소공원,경기도 평택시 추팔2길 65,36.963975,127.075479,false,true,상시,1,1,2,true,true,2025-07-01
pd-566,팽성119안전센타,경기도 평택시 팽성읍 팽성송화로 172,36.9621334,127.059104,true,true,상시,1,2,4,false,false,2025-07-01
pd-567,배미어린이공원,경기도 평택시 비전동 852,36.98828,127.11369,true,true,상시,2,1,3,false,true,2025-07-01
pd-568,도계주유소,경기도 평택시 팽성읍 팽성로 6,36.93874,127.04681,false,true,상시,3,3,3,false,false,2025-07-01
pd-569,평택농업협동조합,경기도 평택시 평택1로 45,36.996214,127.087608,true,true,상시,0,0,3,false,false,2025-07-01
pd-570,전진빌딩(오성),경기도 평택시 오성면 서동대로 2077,37.008293,126.973212,true,true,상시,3,4,7,false,false,2025-07-01
pd-571,통복시장 공영주차장,경기도 평택시 통복시장로 23 (통복동),36.9974897,127.085008,false,true,상시,1,1,2,true,false,2025-07-01
pd-572,팽성도서관(1층),경기도 평택시 팽성읍 안정로95번길 15-25,36.9649177,127.051802,true,true,(평일)08:00-22:00+(주말)08:00-22:00,0,0,0,false,false,2025-07-01
pd-573,sk송탄내트럭주유소,경기도 평택시 청원로 1640,37.04414,127.10306,true,true,상시,2,2,5,false,false,2025-07-01
pd-574,드림체육공원,경기도 평택시 청북읍 율북리 1121,37.062198,126.970179,true,true,상시,1,3,4,true,false,2025-07-01
pd-575,추팔 어린이공원,경기도 평택시 추팔산단2길 28,36.9577982,127.078049,false,true,상시,1,2,1,true,true,2025-07-01
pd-576,상서재근린,경기도 평택시 상서재로 65,37.0205591,127.084176,true,true,상시,1,2,4,true,false,2025-07-01
pd-577,평택배미주유소,경기도 평택시 서동대로 3616,36.9852896,127.111756,false,true,상시,1,2,2,false,false,2025-07-01
pd-578,비전타워,경기도 평택시 평택5로 94,36.9942785,127.11192,false,true,상시,1,1,1,false,false,2025-07-01
pd-579,IBK기업은행 비전지점,경기도 평택시 경기대로 271,36.99495,127.11287,true,true,상시,2,4,4,false,true,2025-07-01
pd-580,통복시장(순대골목),경기도 평택시 통복시장2로9번길 13,36.9971867,127.084029,false,true,상시,0,2,0,true,false,2025-07-01
pd-581,평택시청 청사 화장실(신관 2층),경기도 평택시 경기대로 245,36.9922987,127.112525,false,true,(평일)09:00-18:00+(주말)09:00-18:00,5,7,7,false,false,2025-07-01
pd-582,부락종합사회복지관 2층,경기도 평택시 서정로 303,37.06479,127.06701,false,true,상시,1,1,1,false,false,2025-07-01
pd-583,국민은행 평택대출장소,경기도 평택시 서동대로 3825,36.99332,127.13272,false,true,상시,2,2,2,false,false,2025-07-01
pd-584,고덕면주민센터 3층,"경기도 평택시 고덕면 고덕로 283(좌교리,고덕면사무소)",37.06669,127.01845,false,true,(평일)09:00-18:00+(주말)09:00-18:00,2,2,3,false,false,2025-07-01
pd-585,㈜평택물류주유소,경기도 평택시 도일유통길 38-4(도일동),37.0378598,127.101849,false,true,상시,2,3,3,true,false,2025-07-01
pd-586,경기도평택교육지원청 1층,경기도 평택시 평택1로 80,36.99917,127.08962,false,true,상시,2,2,2,false,false,2025-07-01
pd-587,보람플러스 2동,경기도 평택시 이충로 35번길 26,37.0595022,127.066212,false,true,상시,2,3,2,false,false,2025-07-01
pd-588,우리은행 동평택지점,경기도 평택시 평남로 721,36.9948065,127.113966,false,true,상시,3,4,3,false,false,2025-07-01
pd-589,동양산업㈜직영해안주유소,경기도 평택시 포승읍 서동대로 376,36.93785,126.89039,false,true,상시,2,2,2,false,false,2025-07-01
pd-590,콜주유소,경기도 평택시 안중읍 서동대로 1459,36.990869,126.913393,true,true,상시,2,3,4,false,false,2025-07-01
pd-591,진위야구장 화장실,경기도 평택시 진위면 신리 189-1,37.1015684,127.066989,true,true,상시,1,1,1,true,false,2025-07-01
pd-592,평택과수농협 비전동지점,경기도 평택시 평택5로 191,36.9965077,127.102719,false,true,상시,1,1,1,false,true,2025-07-01
pd-593,경원주유소,경기도 평택시 경기대로 1602,37.08736,127.06289,false,true,상시,1,1,1,false,false,2025-07-01
pd-594,팽성레포츠공원,경기도 평택시 팽성읍 안정로 238-31,36.9690396,127.06586,false,true,상시,2,1,2,false,false,2025-07-01
pd-595,송북동 주민센터 1층,경기도 평택시 지산2로 113,37.0816506,127.060233,false,true,상시,2,3,3,false,false,2025-07-01
pd-596,서평택국민체육센터 1층,경기도 평택시 안중읍 서동대로 1531,36.989434,126.919741,true,true,(평일)06:00-22:00+(주말)06:00-22:00,1,1,1,true,true,2025-07-01
pd-597,평택농협 소사벌지점,경기도 평택시 비전2로 155,37.0014474,127.107997,false,true,상시,2,3,4,true,false,2025-07-01
pd-598,뉴시티-팽성주유소,경기도 평택시 팽성읍 안정로 90,36.963,127.05236,false,true,상시,3,5,3,false,false,2025-07-01
pd-599,건강보험공단 평택지사 1층,경기도 평택시 고덕갈평5길 27,37.056,127.04868,false,true,상시,2,3,2,false,true,2025-07-01
pd-600,송탄보건소 3층,경기도 평택시 서정로 295,37.065714,127.066497,true,true,(평일)09:00-18:00+(주말)09:00-18:00,0,0,2,false,false,2025-07-01
pd-601,제2별관 2층 화장실,경기도 평택시 경기대로 245,36.99258,127.112123,false,true,(평일)09:00-18:00+(주말)09:00-18:00,1,1,1,false,false,2025-07-01
pd-602,안정근린공원-강당산,경기도 평택시 안정순환로267번길 42,36.9606972,127.053128,true,true,상시,1,2,4,false,true,2025-07-01
pd-603,안성천공중화장실,경기도 평택시 평남로 348,36.9853623,127.080521,true,true,상시,1,2,3,true,false,2025-07-01
pd-604,합명회사세방,경기도 평택시 평택로163번길 7,36.9994579,127.078212,false,true,상시,0,0,4,false,false,2025-07-01
pd-605,도곡근린공원,경기도 평택시 여술로 47,36.98933,126.84732,true,true,상시,1,2,2,true,false,2025-07-01
pd-606,포승119안전센타,경기도 평택시 포승읍 평택항로 156번길 11,36.9738585,126.845441,false,true,상시,1,1,2,false,false,2025-07-01
pd-607,부영1차 아파트 1상가,경기도 평택시 세교공원로 66,37.0032483,127.08465,false,true,상시,2,2,2,false,false,2025-07-01
pd-608,평택축협 신평지점,경기도 평택시 평택3로 19,36.9909049,127.092956,true,true,상시,2,3,5,false,false,2025-07-01
pd-609,어린이교통공원 공영화장실,경기도 평택시 안중읍 현화6길 48,36.992816,126.915523,true,true,상시,6,9,6,false,false,2025-07-01
pd-610,하이존 2,경기도 평택시 이충로 49-27,37.0602661,127.065935,false,true,상시,2,1,1,true,false,2025-07-01
pd-611,여성회관 5층,경기도 평택시 이충로 84-6,37.0644014,127.067465,false,true,상시,1,1,1,false,false,2025-07-01
pd-612,번제근린공원(신),경기도 평택시 포승읍 포승공단순환로 625,36.986349,126.833507,true,true,상시,0,3,3,true,false,2025-07-01
pd-613,안정시장,경기도 평택시 팽성읍 안정로39번길 21,36.9605897,127.047298,false,true,상시,3,4,5,false,false,2025-07-01
pd-614,오성주유소,경기도 평택시 안중읍 서동대로 1736,36.9911187,126.942716,false,true,상시,1,2,2,false,false,2025-07-01
pd-615,서평택국민체육센터 3층,경기도 평택시 안중읍 서동대로 1531,36.989434,126.919741,true,true,(평일)06:00-22:00+(주말)06:00-22:00,2,3,2,true,false,2025-07-01
pd-616,우리타워(여),경기도 평택시 평남로 929,37.0037242,127.105236,true,true,상시,3,4,3,true,false,2025-07-01
pd-617,하이웨이주유소,경기도 평택시 서동대로 3806-8,36.9940244,126.852453,true,true,상시,5,7,6,false,false,2025-07-01
pd-618,국도주유소,경기도 평택시 경기대로 781,37.01922,127.07161,true,true,상시,2,2,2,true,true,2025-07-01
pd-619,새솔근린공원,경기도 평택시 고덕국제로 77,37.032841,127.026405,true,true,상시,0,1,2,true,false,2025-07-01
pd-620,평화주유소,경기도 평택시 현덕면 서해로 504,36.9456483,126.913774,false,true,상시,1,1,1,true,false,2025-07-01
pd-621,서정리역 고객지원실 화장실,경기도 평택시 탄현로 51,37.0570033,127.053006,false,true,(평일)09:00-18:00+(주말)09:00-18:00,1,1,1,true,false,2025-07-01
pd-622,팽성 어린이공원,경기도 평택시 팽성읍 안정리 169-50,36.9593946,127.047843,false,true,상시,1,2,2,true,true,2025-07-01
pd-623,다올주유소,경기도 평택시 안중읍 서해로 1408,37.01792,126.94529,false,true,상시,5,5,5,false,false,2025-07-01
pd-624,세교동행정복지센터 2층,경기도 평택시 세교3로 37,36.9999552,127.082418,false,true,(평일)09:00-18:00+(주말)09:00-18:00,1,2,1,false,false,2025-07-01
pd-625,동우주유소,경기도 평택시 평남로 84,37.00149,127.06138,false,true,상시,3,4,4,false,false,2025-07-01
pd-626,라인45주유소,경기도 평택시 팽성읍 팽성로 230,36.95485,127.06109,false,true,상시,2,2,2,false,false,2025-07-01
pd-627,직영주유소,경기도 평택시 청북읍 서해로 1449,37.0215118,126.942861,false,true,상시,1,2,4,false,false,2025-07-01
pd-628,함박산중앙공원(야외무대) 2동,경기도 평택시 고덕로 339,37.042281,127.034191,true,true,상시,1,1,3,true,false,2025-07-01
pd-629,칠원교화장실,경기도 평택시 수촌길 27,37.0184139,127.114754,false,true,상시,4,3,4,false,false,2025-07-01
pd-630,통복지구 공영주차장,경기도 평택시 통복길10,36.9973337,127.082621,true,true,상시,1,1,2,true,false,2025-07-01
pd-631,현덕면 행정복지센터(남·녀),경기도 평택시 현덕면 인광길 84,36.9673,126.9215,false,true,(평일)09:00-18:00+(주말)09:00-18:00,1,2,2,false,false,2025-07-01
pd-632,국민은행 평택지점,경기도 평택시 평택로32번길 25,36.99134,127.08903,false,true,상시,1,1,1,false,false,2025-07-01
pd-633,동아에너지(동삭),경기도 평택시 남북대로 539(동삭동),37.13482,127.03062,false,true,상시,2,2,4,false,false,2025-07-01
pd-634,트윈프라자2,경기도 평택시 평남로 717,36.9947431,127.113712,true,true,상시,0,0,4,false,false,2025-07-01
pd-635,안정리 쇼핑몰주차장,경기도 평택시 팽성읍 안정쇼핑로 8-20,36.9592187,127.043924,false,true,상시,1,1,1,true,false,2025-07-01
pd-636,평택우체국 1층,경기도 평택시 중앙로 63,36.9945512,127.090103,false,true,상시,2,1,3,false,true,2025-07-01
pd-637,비원주유소,경기도 평택시 현덕면 안현로 238,36.97276,126.92275,false,true,상시,2,1,2,true,false,2025-07-01
pd-638,남양주유소,경기도 평택시 포승읍 포승향남로 547,37.00442,126.82761,true,true,상시,6,8,6,true,false,2025-07-01
pd-639,송탄시장 제1공영주차장,경기도 평택시 송탄로 432-1(지산동),37.0822836,127.058279,false,true,상시,1,2,2,true,false,2025-07-01
pd-640,신한은행 안중지점,경기도 평택시 안중읍 안중로 132,36.9886183,126.931168,true,true,상시,7,9,15,false,false,2025-07-01
pd-641,아산공원주유소,경기도 평택시 현덕면 서해로 318,36.9291712,126.91537,true,true,상시,2,3,6,false,false,2025-07-01
pd-642,청북가스충전소,경기도 평택시 청북읍 서해로 1570-1,37.0318842,126.939867,false,true,(평일)09:00-22:00+(주말)09:00-22:00,2,3,2,false,false,2025-07-01
pd-643,평택시청 청사 화장실(본관 3층),경기도 평택시 경기대로 245,36.9922987,127.112525,false,true,(평일)09:00-18:00+(주말)09:00-18:00,5,5,5,false,false,2025-07-01
pd-644,대성주유소,경기도 평택시 서탄면 발안로 1192,37.13489,127.0322,false,true,상시,7,7,10,false,false,2025-07-01
pd-645,서정동 주민센터 2층,경기도 평택시 탄현로 170,37.0677688,127.05469,false,true,(평일)09:00-18:00+(주말)09:00-18:00,2,2,3,true,false,2025-07-01
pd-646,진위파출소,경기도 평택시 진위면 경기대로 1856,37.1102628,127.063569,true,true,상시,2,3,0,false,false,2025-07-01
pd-647,평택과수농협중앙지점,경기도 평택시 평택1로 44,36.9958043,127.088234,false,true,상시,2,3,2,false,false,2025-07-01
pd-648,평택우체국 3층,경기도 평택시 중앙로 63,36.9945512,127.090103,false,true,(평일)09:00-18:00+(주말)09:00-18:00,4,5,4,false,false,2025-07-01
pd-649,평택휴게소(2층),경기도 평택시 평택제천고속도로6 (2층),37.0447491,126.944568,false,true,상시,1,2,0,false,false,2025-07-01
pd-650,팽성제일주유소,경기도 평택시 포승읍 포승공단로 241,36.9860424,126.85941,true,true,상시,1,1,1,false,false,2025-07-01
pd-651,청북도서관(1층),경기도 평택시 청북읍 안청로2길 60,37.020555,126.918015,true,true,(평일)10:00-19:00+(주말)10:00-19:00,2,2,3,false,false,2025-07-01
pd-652,공공자전거대여소 1호점,경기도 평택시 동삭로 174,37.0027592,127.088221,true,true,상시,0,0,1,true,false,2025-07-01
pd-653,상가어린이공원,경기도 평택시 세교3로 32,36.99999,127.081608,true,true,상시,2,3,4,true,true,2025-07-01
pd-654,가람주유소,경기도 평택시 안중읍 강변로 196,36.98021,126.95035,false,true,상시,1,2,2,false,false,2025-07-01
pd-655,서평택고속주유소,경기도 평택시 포승읍 포승공단로 260,36.9864699,126.861937,false,true,(평일)09:00-22:00+(주말)09:00-22:00,1,1,2,false,false,2025-07-01
pd-656,은행 어린이공원,경기도 평택시 평택5로 231,36.9986978,127.101299,false,true,상시,3,3,3,true,true,2025-07-01
pd-657,평택농협 동부지점,경기도 평택시 중앙로 179,36.9918914,127.102857,true,true,상시,2,3,0,true,true,2025-07-01
pd-658,㈜우리주유소,경기도 평택시 경기대로 772,37.0184191,127.072424,true,true,상시,2,2,2,false,false,2025-07-01
pd-659,IBK기업은행 송탄지점,경기도 평택시 관광특구로23(서정동),37.0672,127.06158,true,true,상시,6,7,5,false,false,2025-07-01
pd-660,중앙동 제2공영주차장,경기도 평택시 서정역로26번길 16(이충동),37.0560204,127.056629,false,true,상시,1,1,1,true,false,2025-07-01
pd-661,sk주유소에너지충전소,경기도 평택시 경기대로 1038,37.04156,127.06645,false,true,상시,2,3,3,false,false,2025-07-01
pd-662,덕동산 근린공원 농구장,경기도 평택시 비전동 산 84-14,36.99896,127.09985,true,true,상시,2,3,2,true,true,2025-07-01
pd-663,국민은행 송탄남지점,경기도 평택시 관광특구로 41(서정동),37.06688,127.06348,false,true,상시,1,2,1,false,false,2025-07-01
pd-664,봉골근린공원,경기도 평택시 고덕면 삼성1로 190,37.01949,127.03142,true,true,상시,2,2,5,true,false,2025-07-01
pd-665,IBK기업은행 평택지점,경기도 평택시 중앙로 15,36.99539,127.08495,true,true,상시,6,7,5,false,false,2025-07-01
pd-666,지산동 주민센터 1층,경기도 평택시 송탄로 379,37.0774061,127.057582,false,true,(평일)09:00-22:00+(주말)09:00-22:00,1,1,1,false,false,2025-07-01
pd-667,도곡근린공원,경기도 평택시 포승읍 여술로 47,36.989743,126.848292,true,true,상시,2,2,3,true,false,2025-07-01
pd-668,소풍정원 관리동,경기도 평택시 고덕면 새악길 43-42,37.011845,127.020578,false,true,상시,1,1,1,true,true,2025-07-01
pd-669,통복천 관리동 화장실,경기도 평택시 동삭로 48,37.00228,127.08737,true,true,상시,1,1,0,true,false,2025-07-01
pd-670,현대드림주유소,경기도 평택시 팽성읍 안정로 200,36.9688718,127.061789,false,true,상시,3,4,6,true,false,2025-07-01
pd-671,개나리근린공원,경기도 평택시 청북읍 청원로 427,37.051335,126.97737,false,true,상시,3,3,3,true,false,2025-07-01
pd-672,통복시장(주단골목),경기도 평택시 통복시장2로 15-1,36.9964066,127.084784,false,true,상시,0,3,0,true,false,2025-07-01
pd-673,소사벌레포츠타운(농구장),경기도 평택시 평남로 616,36.9875654,127.106511,true,true,상시,2,3,6,true,false,2025-07-01
pd-674,내리문화공원(주차장),경기도 평택시 팽성읍 내리 산3-3,36.97164,127.02843,true,true,상시,1,2,4,true,false,2025-07-01
pd-675,농협중앙회 송탄지점,경기도 평택시 쇼핑로 25,37.08116,127.05223,false,true,상시,1,1,2,false,false,2025-07-01
pd-676,서정동 주민센터 3층,경기도 평택시 탄현로 170,37.0677688,127.05469,false,true,(평일)09:00-18:00+(주말)09:00-18:00,3,3,3,false,false,2025-07-01
pd-677,송탄주유소,경기도 평택시 탄현로 344,37.082619,127.057152,false,true,상시,1,2,1,true,false,2025-07-01
pd-678,제이앤비주유소,경기도 평택시 청원로 1374,37.0525178,127.075508,false,true,상시,6,46,4,false,false,2025-07-01
pd-679,㈜정원상사칠원동충전소,경기도 평택시 남북대로 660(칠원동),37.0222878,127.104734,false,true,상시,2,2,2,false,false,2025-07-01
pd-680,하나은행 평택중앙지점,경기도 평택시 평택1로 16,36.993334,127.087331,false,true,상시,2,2,2,false,true,2025-07-01
pd-681,현신 근린공원,경기도 평택시 현신6길 56,36.9984464,127.151239,true,true,상시,2,2,4,true,true,2025-07-01
pd-682,개인택시협동조합,경기도 평택시 은실고가로 5,37.00334,127.05963,false,true,상시,1,2,1,false,true,2025-07-01
pd-683,여성회관 3층,경기도 평택시 이충로 84-6,37.0644014,127.067465,false,true,상시,1,1,1,false,false,2025-07-01
pd-684,오성면사무소(1층),경기도 평택시 오성면 숙성시장길 23,37.0076959,126.980078,false,true,상시,9,9,9,false,false,2025-07-01
pd-685,노양리 화장실,경기도 평택시 팽성읍 노양리 193-2,36.937197,126.990853,true,true,상시,0,2,2,true,false,2025-07-01
pd-686,원평청소년문화의집,경기도 평택시 원평로 83번길 38-28,36.9901078,127.08018,true,true,(평일)09:00-18:00+(주말)09:00-18:00,2,3,3,false,true,2025-07-01
pd-687,농업생태원 방문자센터 내부,경기도 평택시 오성면 청오로 33-34,37.014978,126.983527,true,true,상시,2,2,5,false,true,2025-07-01
pd-688,여성회관 4층,경기도 평택시 이충로 84-6,37.0644014,127.067465,false,true,상시,2,1,4,false,false,2025-07-01
pd-689,비전파출소,경기도 평택시 평택5로 189,36.99636,127.10303,false,true,상시,1,1,2,true,false,2025-07-01
pd-690,평택시농업기술센터 농산물가공지원센터 화장실,경기도 평택시 오성면 청오로 33-58,37.014331,126.980868,true,true,(평일)09:00-18:00,0,0,0,false,false,2025-07-01
pd-691,평궁리 마을쉼터(폐쇄중),경기도 평택시 평궁길 113-8,36.9718333,127.088257,false,true,상시,1,2,2,true,true,2025-07-01
pd-692,현덕면 생활문화센터,경기도 평택시 현덕면 인광3길 12-12,36.9667,126.9213,false,true,(평일)09:00-18:00+(주말)09:00-18:00,6,8,6,true,false,2025-07-01
pd-693,비전1동 주민센터 2층,경기도 평택시 비전2로 330,37.01102,127.11197,false,true,(평일)09:00-18:00+(주말)09:00-18:00,5,4,5,false,false,2025-07-01
pd-694,신당근린공원 테니스장,경기도 평택시 평택항로 98,36.9700505,126.847489,true,true,상시,4,3,4,true,false,2025-07-01
pd-695,고덕수변공원7호,경기도 평택시 고덕순환대로 12,37.035668,127.039558,true,true,상시,3,2,5,true,false,2025-07-01
pd-696,소풍정원 캠핑장 B구역,경기도 평택시 고덕면 궁리424-25,37.011845,127.020578,false,true,상시,2,1,3,false,false,2025-07-01
pd-697,금암체육공원 화장실,경기도 평택시 서탄로 326-41,37.1119418,127.03515,false,true,상시,1,1,2,true,false,2025-07-01
pd-698,장당도서관(2층),경기도 평택시 장당길 116,37.0528596,127.065229,false,true,(평일)09:00-22:00+(주말)09:00-22:00,2,2,4,false,false,2025-07-01
pd-699,가득주유소,경기도 평택시 안중읍 서동대로 1411,36.9918,126.9082,false,true,상시,2,2,2,false,false,2025-07-01
pd-700,여객터미널 화장실(남),경기도 평택시 포승읍 평택항만길 75,36.9577232,126.845734,true,true,(평일)09:00-18:00+(주말)09:00-18:00,1,2,0,true,false,2025-07-01
pd-701,월프라자,경기도 평택시 이충로 49-29,37.0601905,127.065717,false,true,상시,3,5,7,false,false,2025-07-01
pd-702,이충문화체육센터 지상 2층(동쪽),경기도 평택시 장안웃길 149,37.0649523,127.079696,false,true,(평일)06:00-21:00+(주말)06:00-21:00,6,7,6,true,false,2025-07-01
pd-703,고덕면주민센터 4층,"경기도 평택시 고덕면 고덕로 283(좌교리,고덕면사무소)",37.06669,127.01845,false,true,(평일)09:00-18:00+(주말)09:00-18:00,1,2,2,false,false,2025-07-01
pd-704,평택휴게소(1층),경기도 평택시 평택제천고속도로6 (1층),37.0447491,126.944568,false,true,상시,1,1,0,false,true,2025-07-01
pd-705,평택도시공사 사옥,경기도 평택시 도일유통길 25,37.0386049,127.100669,true,true,(평일)09:00-18:00+(주말)09:00-18:00,9,4,7,true,true,2025-07-01
pd-706,송탄보건소 2층,경기도 평택시 서정로 295,37.065714,127.066497,true,true,(평일)09:00-18:00+(주말)09:00-18:00,1,2,0,false,false,2025-07-01
pd-707,국민은행 안중지점,경기도 평택시 안중읍 안현로서6길 32,36.98475,126.92591,false,true,상시,1,1,1,false,false,2025-07-01
pd-708,평택시농업기술센터 청사 화장실,경기도 평택시 오성면 청오로 33-58,37.014331,126.980868,true,true,(평일)09:00-18:00+(주말)09:00-18:00,11,9,11,false,false,2025-07-01
pd-709,지산초록도서관(1층),경기도 평택시 지산로 48(1층),37.0789665,127.060341,true,true,(평일)09:00-22:00+(주말)09:00-22:00,2,3,5,false,false,2025-07-01
pd-710,비전주유소,경기도 평택시 만세로 1754-3,37.0110492,127.109134,false,true,상시,1,2,0,false,false,2025-07-01
pd-711,으뜸체육공원,경기도 평택시 청북읍 청북남로 339,37.0191743,126.907364,false,true,상시,4,4,8,true,false,2025-07-01
pd-712,칠원동 충전소 화장실,경기도 평택시 남북대로 660(칠원동),37.0222878,127.104734,false,true,상시,1,2,1,false,false,2025-07-01
pd-713,내리문화공원(광장),경기도 평택시 팽성읍 내리 산3-3,36.97164,127.02843,true,true,상시,1,2,4,true,true,2025-07-01
pd-714,서탄파출소,경기도 평택시 서탄면 서탄로 280,37.108132,127.033887,false,true,상시,1,1,1,true,false,2025-07-01
pd-715,평택쇼핑타운,경기도 평택시 포승읍 2함대길 20,36.9947372,126.834774,true,true,(평일)09:00-18:00+(주말)09:00-18:00,0,0,4,false,false,2025-07-01
pd-716,평택시청 청사 화장실(신관 4층),경기도 평택시 경기대로 245,36.9922987,127.112525,false,true,(평일)09:00-18:00+(주말)09:00-18:00,5,7,7,false,false,2025-07-01
pd-717,평택역 맞이방 고객화장실,경기도 평택시 평택로 51,36.9918974,127.083288,false,true,(평일)09:00-18:00+(주말)09:00-18:00,2,2,1,false,false,2025-07-01
pd-718,평택시청 청사 화장실(신관 1층),경기도 평택시 경기대로 245,36.9922987,127.112525,true,true,(평일)09:00-18:00+(주말)09:00-18:00,5,7,7,false,false,2025-07-01
pd-719,배다리도서관(2층),경기도 평택시 죽백로 20,37.00232,127.11965,true,true,(평일)09:00-22:00+(주말)09:00-20:00,3,3,7,true,false,2025-07-01
pd-720,호원주유소,경기도 평택시 진위면 남부대로 538,37.129422,127.092201,false,true,상시,4,5,2,true,false,2025-07-01
pd-721,서정리시장 야외공연장,경기도 평택시 서정역로47번길 14-9,37.057599,127.055033,true,true,상시,1,1,2,true,true,2025-07-01
pd-722,지산초록도서관(2층),경기도 평택시 지산로 48(2층),37.0789665,127.060341,true,true,(평일)09:00-22:00+(주말)09:00-22:00,2,3,5,false,false,2025-07-01
pd-723,중앙동 행정복지센터 1층,경기도 평택시 서정역로 16,37.0555584,127.056053,true,true,상시,2,3,2,false,false,2025-07-01
pd-724,용이 근린공원,경기도 평택시 현신3길 13,36.9963135,127.136286,true,true,상시,2,2,4,true,false,2025-07-01
pd-725,sk고속주유소,경기도 평택시 서동대로 3848,36.99287,127.13513,true,true,상시,0,2,2,false,false,2025-07-01
pd-726,평택우체국 2층,경기도 평택시 중앙로 63,36.9945512,127.090103,false,true,(평일)09:00-18:00+(주말)09:00-18:00,4,5,4,false,true,2025-07-01
pd-727,남산근린공원 족구장,경기도 평택시 팽성읍 송화택지로 109,36.96156,127.06213,false,true,상시,1,2,3,true,false,2025-07-01
pd-728,흔치휴게소(여),경기도 평택시 장안웃길 56-88(장안동),37.0645081,127.080787,false,true,상시,2,1,3,true,false,2025-07-01
pd-729,진위주유소,경기도 평택시 진위면 동부대로 77,37.1107834,127.081329,false,true,(평일)09:00-18:00+(주말)09:00-18:00,7,6,7,false,false,2025-07-01
pd-730,평택지구대,경기도 평택시 중앙1로 23,36.9983486,127.085612,true,true,상시,3,3,8,false,false,2025-07-01
pd-731,농업생태원 2번 화장실,경기도 평택시 오성면 청오로 33-34,37.014978,126.983527,true,true,(평일)09:30-18:00+(주말)09:30-18:00,1,2,5,true,false,2025-07-01
pd-732,세교동7통 3호,경기도 평택시 경기대로664번길 32-1,37.010551,127.074805,false,true,(평일)09:00-18:00+(주말)09:00-18:00,1,1,1,false,false,2025-07-01
pd-733,엘지로주유소,경기도 평택시 진위면 엘지로 74,37.1248278,127.073616,false,true,상시,1,1,1,false,false,2025-07-01
pd-734,안중농협 현화지점,경기도 평택시 안중읍 안현로서8길 49,36.9792735,126.920319,false,true,상시,3,1,3,false,true,2025-07-01
pd-735,이충문화체육센터 지하 1층(남자탈의실),경기도 평택시 장안웃길 149,37.0649523,127.079696,false,true,(평일)06:00-21:00+(주말)06:00-21:00,1,1,0,true,false,2025-07-01
pd-736,진위도서관(2층),경기도 평택시 진위면 진위서로 137(2층),37.1066882,127.078349,false,true,(평일)10:00-19:00+(주말)10:00-19:00,2,1,2,false,false,2025-07-01
pd-737,평택시청소년문화센터 본관 화장실,경기도 평택시 평남로 616,36.988412,127.109093,true,true,(평일)08:30-20:50+(주말)08:30-20:50,20,21,24,true,false,2025-07-01
pd-738,모곡족구장 화장실,경기도 평택시 모곡동 323-2,37.0267666,127.071837,true,true,상시,2,2,1,true,false,2025-07-01
pd-739,농업생태원 방문자센터 외부,경기도 평택시 오성면 청오로 33-34,37.014978,126.983527,true,true,(평일)09:30-18:00+(주말)09:30-18:00,1,1,3,false,false,2025-07-01
pd-740,평택축협 지산지점,경기도 평택시 지산로 52,37.0793239,127.060778,false,true,상시,1,2,3,false,false,2025-07-01
pd-741,안중농협 포승지점,경기도 평택시 포승읍 서동대로 1174,36.9832095,126.884347,true,true,상시,3,3,3,false,false,2025-07-01
pd-742,에스씨에너지㈜직영용이주유소,경기도 평택시 서동대로 3853,36.9934103,127.135422,true,true,상시,2,3,5,false,false,2025-07-01
pd-743,평택축협 송탄지점,경기도 평택시 서정역로 56,37.058818,127.054629,true,true,상시,2,3,5,false,false,2025-07-01
pd-744,평택공단 근린공원,경기도 평택시 세교산단로 21-19,37.0105149,127.079473,false,true,상시,2,2,2,true,true,2025-07-01
pd-745,이충실내배드민턴장 지상 2층(배드민턴장),경기도 평택시 장안웃길 149,37.0660578,127.07071,false,true,(평일)06:00-21:00+(주말)06:00-21:00,2,2,5,false,false,2025-07-01
pd-746,델리월드(휴게소),경기도 평택시 청북읍 서해로 1961,37.06109,126.91965,true,true,상시,8,12,16,false,false,2025-07-01
pd-747,평택소방서,경기도 평택시 중앙로 273,36.9904544,127.112846,false,true,상시,1,2,5,false,false,2025-07-01
pd-748,평택시청 청사 화장실(본관 1층),경기도 평택시 경기대로 245,36.9922987,127.112525,true,true,(평일)09:00-18:00+(주말)09:00-18:00,4,5,4,true,false,2025-07-01
pd-749,㈜태경평택공단주유소,경기도 평택시 경기대로 616,37.0075177,127.079833,true,true,상시,1,1,1,false,false,2025-07-01
pd-750,서평택국민체육센터 2층,경기도 평택시 안중읍 서동대로 1531,36.989434,126.919741,true,true,(평일)06:00-22:00+(주말)06:00-22:00,2,3,2,true,true,2025-07-01
pd-751,㈜MOT직영주유소,경기도 평택시 경기대로 542,37.0043298,127.087184,false,true,상시,2,2,2,false,false,2025-07-01
pd-752,상서재마당근린,경기도 평택시 상서재로4길 32,37.0149135,127.102948,true,true,상시,1,2,4,true,false,2025-07-01
pd-753,무림통운㈜주유소,경기도 평택시 도일유존길69(도일동),37.03853,127.10452,false,true,상시,1,2,2,true,false,2025-07-01
pd-754,함정리 마을쉼터,경기도 평택시 팽성서로 118,36.9534788,127.013662,false,true,상시,2,2,3,true,false,2025-07-01
pd-755,송북동 주민센터 2층,경기도 평택시 지산2로 113,37.0816506,127.060233,true,true,(평일)09:00-18:00+(주말)09:00-18:00,0,0,5,false,false,2025-07-01
pd-756,우리에너지주유소,경기도 평택시 현덕면 서동대로 83,36.9171389,126.90643,false,true,상시,2,2,2,false,true,2025-07-01
pd-757,평택시평택보건소 B동 1층,경기도 평택시 평택5로 56,36.9908957,127.111969,true,true,(평일)09:00-18:00+(주말)09:00-18:00,2,2,2,false,false,2025-07-01
pd-758,팽성도서관(2층),경기도 평택시 팽성읍 안정로95번길 15-25,36.9649177,127.051802,false,true,(평일)08:00-22:00+(주말)08:00-22:00,1,1,2,false,false,2025-07-01
pd-759,통복동주민센터 1층,경기도 평택시 통복시장로48번길 41,37.0007981,127.087277,true,true,상시,1,3,4,true,true,2025-07-01
pd-760,평택복합휴게소 평택(제천방향)주유소,경기도 평택시 청북읍 평택제천고속도로 6,37.0447491,126.944568,false,true,상시,4,3,4,true,true,2025-07-01
pd-761,노랑등대 화장실,경기도 평택시 안중읍 삼정길 134-345,36.9718457,126.972991,true,true,상시,0,2,2,true,false,2025-07-01
pd-762,평택시 보훈회관,경기도 평택시 통복시장로16번길 28,36.9962026,127.086763,false,true,(평일)09:00-17:00+(주말)09:00-17:00,10,10,20,false,false,2025-07-01
pd-763,안중전통 공영주차장,경기도 평택시 안현로서3길 32,36.9876561,126.9279,true,true,상시,2,3,5,true,false,2025-07-01
pd-764,신흥근린공원,경기도 평택시 용이동 744-1,37.0037724,127.14888,true,true,상시,1,2,4,true,true,2025-07-01
pd-765,토끼와거북이주유소,경기도 평택시 평택로 258,37.0061011,127.072665,true,true,상시,3,2,3,true,false,2025-07-01
pd-766,이충문화체육센터 지하 1층(여자탈의실),경기도 평택시 장안웃길 149,37.0649523,127.079696,false,true,(평일)06:00-21:00+(주말)06:00-21:00,0,0,3,true,false,2025-07-01
pd-767,안정쇼핑몰 예술인 광장,"경기도 평택시 팽성읍 안정쇼핑로 11, 안정쇼핑몰예술인광장",36.9598428,127.044364,true,true,상시,3,4,4,true,false,2025-07-01
pd-768,혼치휴게소,경기도 평택시 장안동 산11-2,37.0687252,127.087906,true,true,상시,3,3,8,true,false,2025-07-01
pd-769,신장1동 행정복지센터(1층),경기도 평택시 신장로90번길 63,37.0839628,127.052388,false,true,(평일)09:00-18:00+(주말)09:00-18:00,2,2,2,false,false,2025-07-01
pd-770,송내주유소,경기도 평택시 포승읍 서동대로 896,36.96755,126.862059,false,true,상시,2,2,2,false,true,2025-07-01
pd-771,슈퍼맨주유소,경기도 평택시 탄현로 192,37.0697848,127.054854,false,true,(평일)09:00-18:00+(주말)09:00-18:00,2,4,4,false,false,2025-07-01
pd-772,안중119안전센타,경기도 평택시 안중읍 안현로서7길 28,36.9818397,126.924423,false,true,상시,3,4,5,false,true,2025-07-01
pd-773,이충문화체육센터 지상 2층(서쪽),경기도 평택시 장안웃길 149,37.0649523,127.079696,true,true,(평일)06:00-21:00+(주말)06:00-21:00,5,7,5,true,false,2025-07-01
pd-774,두바이주유소,경기도 평택시 포승읍 서동대로 713,36.9548621,126.859962,false,true,상시,1,1,2,false,false,2025-07-01
pd-775,안중읍 행정복지센터 화장실 2층,경기도 평택시 안중읍 안현로 400,36.9856239,126.931996,false,true,(평일)09:00-18:00+(주말)09:00-18:00,3,3,4,false,false,2025-07-01
pd-776,무봉산청소년수련원 야외 야영장,경기도 평택시 진위면 진위로 181-95,37.107202,127.095024,false,true,(평일)09:00-18:00+(주말)09:00-18:00,8,6,8,false,true,2025-07-01
pd-777,안중새마을금고 현화본점,경기도 평택시 안중읍 안현로서8길 31-8,36.9790438,126.9221,true,true,상시,0,0,3,true,true,2025-07-01
pd-778,안중농협 현덕지점,경기도 평택시 현덕면 인광길 74,36.9665862,126.920616,true,true,상시,3,3,3,false,true,2025-07-01
pd-779,안중도서관(1층),경기도 평택시 안중읍 서동대로 1531,36.9901366,126.920152,true,true,(평일)08:00-22:00+(주말)08:00-22:00,2,3,4,true,false,2025-07-01
pd-780,평원주유소,경기도 평택시 만세로 1465,37.0328078,127.126394,false,true,상시,3,3,6,false,false,2025-07-01
pd-781,희여울수변공원,경기도 평택시 포승읍 황해희곡8길 40,36.949363,126.868785,true,true,상시,0,1,2,true,false,2025-07-01
pd-782,오성파출소,경기도 평택시 오성면 숙성시장길 71,37.008881,126.985529,false,true,상시,1,2,1,false,false,2025-07-01
pd-783,비전1동 주민센터 1층,경기도 평택시 비전2로 330,37.01102,127.11197,true,true,상시,2,1,1,false,true,2025-07-01
pd-784,건화주유소평택점,경기도 평택시 현덕면 서해로 471,36.94285,126.91438,false,true,상시,1,2,1,false,false,2025-07-01
pd-785,내트럭㈜평택사업소,경기도 평택시 포승읍 하만호길 229,36.95603,126.85578,false,true,상시,2,2,2,true,false,2025-07-01
pd-786,서탄면주민센터 나동 1층,경기도 평택시 서탄면 금암2길 122,37.1082413,127.035332,false,true,(평일)09:00-18:00+(주말)09:00-18:00,1,2,2,false,true,2025-07-01
pd-787,서정동 주민센터 4층,경기도 평택시 탄현로 170,37.0677688,127.05469,false,true,(평일)09:00-18:00+(주말)09:00-18:00,3,3,3,false,false,2025-07-01
pd-788,평택축협 비전지점,경기도 평택시 평남로 645,36.9915311,127.106783,false,true,상시,1,2,3,false,false,2025-07-01
pd-789,현대오일칠칠주유소,경기도 평택시 팽성읍 부용로 118,36.9656191,127.066921,false,true,상시,3,4,3,false,false,2025-07-01
pd-790,동삭근린공원,경기도 평택시 동삭1로22번길 14,37.02054,127.09437,true,true,상시,1,2,4,true,false,2025-07-01
pd-791,송탄농협,경기도 평택시 서정역로 27,37.0565886,127.055463,true,true,상시,0,0,3,false,false,2025-07-01
pd-792,영원7주유소,경기도 평택시 서탄면 발안로 1102,37.1320674,127.022575,true,true,상시,0,0,4,false,false,2025-07-01
pd-793,㈜삼표에너지신성주유소,경기도 평택시 고덕면 서동대로 2796(동고리),37.0070305,127.046064,false,true,상시,5,1,5,false,false,2025-07-01
pd-794,은실근린공원3,경기도 평택시 동삭동 산176 일원,37.013868,127.088203,true,true,상시,1,2,4,true,true,2025-07-01
pd-795,진위역 맞이방 고객화장실,경기도 평택시 진위면 경기대로 1855,37.1099375,127.062366,true,true,상시,2,3,0,false,false,2025-07-01
pd-796,고덕면주민센터 1층,"경기도 평택시 고덕면 고덕로 283(좌교리,고덕면사무소)",37.06669,127.01845,false,true,(평일)09:00-18:00+(주말)09:00-18:00,1,3,3,false,false,2025-07-01
pd-797,청룡셀프주유소,경기도 평택시 만세로 1595,37.0221982,127.120114,false,true,상시,2,3,4,false,false,2025-07-01
pd-798,세교동7통 2호,경기도 평택시 경기대로 662-11,37.0103951,127.075692,false,true,상시,1,2,2,false,true,2025-07-01
pd-799,에이제이토탈㈜직영이화주유소,경기도 평택시 서동대로 3672,36.9940244,126.852453,false,true,상시,2,1,2,false,false,2025-07-01
pd-800,㈜평송,경기도 평택시 진위면 경기대로 1915,37.1152392,127.063329,false,true,상시,2,2,3,false,false,2025-07-01
pd-801,청북 문화센터,경기도 평택시 청북읍 안청로 2길 60,37.0206758,126.918134,false,true,상시,2,2,2,false,false,2025-07-01
pd-802,비전2배수지 화장실,경기도 평택시 매봉산4길 33-8,36.99564,127.10763,false,true,상시,8,6,8,true,true,2025-07-01
pd-803,경기도평택교육지원청 3층,경기도 평택시 평택1로 80,36.99917,127.08962,false,true,상시,1,2,1,false,false,2025-07-01
pd-804,송담근린공원,경기도 평택시 안중읍 송담리 861,36.9808851,126.931227,false,true,상시,2,2,2,true,false,2025-07-01
pd-805,청북읍 행정복지센터 2층,경기도 평택시 청북읍 청원로 2,37.0400724,126.934582,false,true,(평일)09:00-18:00+(주말)09:00-18:00,3,2,3,true,false,2025-07-01
pd-806,서탄면주민센터 가동 2층,경기도 평택시 서탄면 금암2길 122,37.1082413,127.035332,false,true,(평일)09:00-18:00+(주말)09:00-18:00,1,2,2,true,false,2025-07-01
pd-807,서정리역 지하공영주차장,경기도 평택시 고덕갈평로 86(고덕동),37.0572303,127.051259,true,true,상시,1,1,1,true,false,2025-07-01
pd-808,신장파출소,경기도 평택시 신서로 65,37.072435,127.05125,true,true,상시,1,1,3,true,false,2025-07-01
pd-809,용이주유소,경기도 평택시 서동대로 3853,36.9934103,127.135422,false,true,상시,1,1,1,true,false,2025-07-01
pd-810,안중새마을금고 포승지점,경기도 평택시 포승읍 서동대로 1132,36.9814917,126.880826,true,true,상시,0,0,3,false,false,2025-07-01
pd-811,지제역 맞이방 고객화장실,경기도 평택시 경기대로 777,37.0187847,127.070485,false,true,상시,0,0,2,false,false,2025-07-01
pd-812,안중공용버스터미널,경기도 평택시 안중읍 안현로서9길 14-4,36.9776762,126.923336,false,true,상시,3,4,5,true,false,2025-07-01
pd-813,통복천 건강쉼터 화장실,경기도 평택시 통복시장로54번길 43-6,37.00112,127.08717,true,true,상시,2,0,2,true,false,2025-07-01
pd-814,강당산테니스장,경기도 평택시 팽성읍 송화리 27-4,36.9621,127.05344,false,true,상시,1,2,1,false,false,2025-07-01
pd-815,굿모닝주유소,경기도 평택시 포승읍 서동대로 501,36.94289,126.87793,false,true,상시,2,3,2,false,false,2025-07-01
pd-816,청북IC주유소,경기도 평택시 청북읍 청원로 49,37.0406487,126.93924,false,true,상시,2,2,2,false,false,2025-07-01
pd-817,서부운동장(B),경기도 평택시 서해로1528-18,37.0305504,126.943257,true,true,상시,2,3,5,true,false,2025-07-01
pd-818,송타농협 칠원지점,경기도 평택시 원칠원길 59,37.031968,127.100088,true,true,상시,2,3,4,false,false,2025-07-01
pd-819,팽성읍사무소 3층,경기도 평택시 팽성읍 동서촌로 89,36.9651766,127.062345,false,true,(평일)09:00-18:00+(주말)09:00-18:00,1,1,1,false,false,2025-07-01
pd-820,서정지구대,경기도 평택시 서정역로 34,37.0571106,127.056154,false,true,상시,1,1,2,false,false,2025-07-01
pd-821,용마주유소,경기도 평택시 지산로 291,37.0761971,127.086403,false,true,상시,9,9,9,false,false,2025-07-01
pd-822,현대오일뱅크 직영송화주유소,경기도 평택시 팽성읍 팽성송화로 49,36.952798,127.052909,false,true,상시,2,2,2,false,false,2025-07-01
pd-823,마산주유소,경기도 평택시 진위면 삼남로 691,37.08536,127.09126,false,true,상시,2,2,2,false,false,2025-07-01
pd-824,탑주유소,경기도 평택시 송탄로 354,37.0754886,127.058903,false,true,상시,1,1,1,false,false,2025-07-01
pd-825,지산동 주민센터 3층,경기도 평택시 송탄로 379,37.0774061,127.057582,true,true,(평일)09:00-18:00+(주말)09:00-18:00,1,2,2,false,false,2025-07-01
pd-826,지산초록도서관(지하),경기도 평택시 지산로 48(지하),37.0789665,127.060341,true,true,(평일)09:00-22:00+(주말)09:00-22:00,2,3,5,false,false,2025-07-01
pd-827,평택시로컬푸드직매장 이충점(1층),경기도 평택시 장안웃길 149 로컬푸드직매장이충점 1층,37.065085,127.072355,false,true,(평일)09:00-20:00+(주말)09:00-20:00,1,1,2,false,false,2025-07-01
pd-828,평택축협 송북지점,경기도 평택시 특구로 27번길 16,37.0682852,127.062929,false,true,상시,3,4,3,true,true,2025-07-01
pd-829,아홉거리근린공원,경기도 평택시 고덕동 2390-1,37.059726,127.031492,true,true,상시,2,3,8,true,false,2025-07-01
pd-830,보람플러스 1동,경기도 평택시 이충로 35번길 24,37.0596292,127.066492,true,true,상시,2,2,3,false,false,2025-07-01
pd-831,트윈프라자1,경기도 평택시 평남로 721,36.9948065,127.113966,true,true,상시,1,2,0,true,false,2025-07-01
pd-832,현진주유소,경기도 평택시 삼남로 331,37.0555742,127.095735,false,true,상시,2,2,3,false,false,2025-07-01
pd-833,송탄보건소 1층,경기도 평택시 서정로 295,37.065714,127.066497,true,true,상시,3,4,6,false,false,2025-07-01
pd-834,세교동7통 1호,경기도 평택시 경기대로664번길 10,37.0101771,127.075631,false,true,상시,1,1,1,false,false,2025-07-01
pd-835,덕동산 근린공원 명법사,경기도 평택시 비전동 산 84-14,36.99896,127.09985,false,true,상시,3,3,4,true,false,2025-07-01
pd-836,원동근린공원,경기도 평택시 동삭동 467-9 일원,37.018129,127.090238,true,true,상시,1,2,4,true,true,2025-07-01
pd-837,정원가스충전소,경기도 평택시 평택로 129,36.9995345,127.080201,false,true,상시,1,2,1,true,true,2025-07-01
pd-838,기산주유소,경기도 평택시 현덕면 서해로 471,36.94285,126.91438,false,true,상시,2,2,2,false,false,2025-07-01
pd-839,하북2리마을쉼터,경기도 평택시 진위면 하북2길 68,37.10047,127.04962,true,true,상시,4,5,4,true,false,2025-07-01
pd-840,당산 근린공원,경기도 평택시 죽백동 728,37.00772,127.11694,true,true,상시,1,2,4,true,false,2025-07-01
pd-841,오성아이씨주유소,경기도 평택시 오서연 서동대로 2296,37.011669,126.995975,false,true,상시,2,2,3,false,false,2025-07-01
pd-842,우리은행 송탄지점,경기도 평택시 탄현로 319,37.0809705,127.055369,false,true,상시,3,4,7,false,false,2025-07-01
pd-843,구)관리사무소 옆,경기도 평택시 현덕면 평택호길 4,36.91909,126.91777,true,true,상시,1,2,4,true,false,2025-07-01
pd-844,함박산중앙공원(방문자센터)실외,경기도 평택시 고덕로 381,37.045671,127.035024,true,true,상시,3,2,6,true,false,2025-07-01
pd-845,평택시청 청사 화장실(본관 2층 대회의실 앞),경기도 평택시 경기대로 245,36.9922987,127.112525,false,true,(평일)09:00-18:00+(주말)09:00-18:00,3,5,3,false,false,2025-07-01
pd-846,안중농협 송담주유소,경기도 평택시 현덕면 송담1로 10,36.9761172,126.924809,false,true,상시,2,2,2,false,false,2025-07-01
pd-847,믿음주유소,경기도 평택시 고덕면 청원로 673(동청리),37.0541,127.002922,true,true,상시,2,4,3,true,false,2025-07-01
pd-848,현대오일뱅크㈜ 서탄주유소,경기도 평택시 서탄면 발안로 1177,37.1348754,127.030649,false,true,상시,1,2,2,false,false,2025-07-01
pd-849,새한 어린이공원,경기도 평택시 동부공원로14번길 32-4,36.9924274,127.116996,true,true,상시,1,1,0,true,true,2025-07-01
pd-850,진위도서관(1층),경기도 평택시 진위면 진위서로 137(1층),37.1066882,127.078349,true,true,(평일)10:00-19:00+(주말)10:00-19:00,2,1,2,false,false,2025-07-01
pd-851,평택로컬푸드종합센터(2층),경기도 평택시 오성면 청오로 33-34 평택로컬푸드종합센터 2층,37.014978,126.983527,true,true,(평일)09:00-19:00+(주말)09:00-19:00,2,2,4,true,false,2025-07-01
pd-852,안중새마을금고,경기도 평택시 안중읍 안현로서2길 34,36.9881683,126.928157,false,true,상시,1,2,1,false,false,2025-07-01
pd-853,안중도서관(2층),경기도 평택시 안중읍 서동대로 1531,36.9901366,126.920152,false,true,(평일)09:00-22:00+(주말)09:00-22:00,2,3,2,false,false,2025-07-01
pd-854,서경주유소,경기도 평택시 팽성읍 사거리길 7,36.9430831,127.051051,false,true,상시,1,1,1,false,false,2025-07-01
pd-855,중앙동 행정복지센터 4층,경기도 평택시 서정역로 16,37.0555584,127.056053,false,true,(평일)09:00-18:00+(주말)09:00-18:00,2,2,2,false,false,2025-07-01
pd-856,국민은행 청북지점,경기도 평택시 청북읍 안청로 346,37.01866,126.91539,true,true,상시,2,4,2,false,false,2025-07-01
pd-857,부락종합사회복지관,경기도 평택시 서정로 303,37.06479,127.06701,false,true,(평일)09:00-18:00,8,8,8,false,false,2025-07-01
pd-858,평택세무서,경기도 평택시 죽백6로 6,37.0034719,127.117475,false,true,상시,1,3,0,false,true,2025-07-01
pd-859,평택경찰서,경기도 평택시 중앙로 67,36.9948466,127.090957,false,true,상시,2,1,2,true,false,2025-07-01
pd-860,진위면사무소 1층,경기도 평택시 진위면 봉남길 61,37.0854204,127.090671,false,true,(평일)09:00-18:00+(주말)09:00-18:00,2,2,2,false,false,2025-07-01
pd-861,모산근린공원,경기도 평택시 동삭동 396,37.01166,127.09568,true,true,상시,2,2,5,true,false,2025-07-01
pd-862,추팔 근린공원,경기도 평택시 팽성읍 추팔리 398-2,36.9516214,127.075029,false,true,상시,1,2,1,true,true,2025-07-01
pd-863,서탄면주민센터 가동 1층,경기도 평택시 서탄면 금암2길 122,37.1082413,127.035332,false,true,상시,2,2,2,false,false,2025-07-01
pd-864,현덕면 행정복지센터(장애인),경기도 평택시 현덕면 인광길 84,36.9673,126.9215,false,true,(평일)09:00-18:00+(주말)09:00-18:00,0,0,0,false,false,2025-07-01
pd-865,함박산중앙공원(실개천),경기도 평택시 함박산3길 29,37.041612,127.037488,true,true,상시,1,1,3,true,false,2025-07-01
pd-866,원앙 어린이공원,경기도 평택시 세교1로 53,37.0017701,127.086165,true,true,상시,1,2,4,true,true,2025-07-01
pd-867,만호근린공원,경기도 평택시 포승읍 만호리 681,36.96986,126.86226,true,true,상시,2,3,3,true,false,2025-07-01
pd-868,L2주유소,경기도 평택시 평남로 253,36.99288,127.07734,false,true,상시,3,8,7,false,false,2025-07-01
pd-869,평택시농업기술센터 미생물관 화장실,경기도 평택시 오성면 청오로 33-58,37.014331,126.980868,false,true,(평일)09:00-18:00,1,1,1,false,false,2025-07-01
pd-870,갈곶근린공원,경기도 평택시 진위2산단로 87-22,37.12337,127.07598,true,true,상시,1,3,3,true,false,2025-07-01
pd-871,고덕면주민센터 2층,"경기도 평택시 고덕면 고덕로 283(좌교리,고덕면사무소)",37.06669,127.01845,false,true,(평일)09:00-18:00+(주말)09:00-18:00,1,3,3,false,false,2025-07-01
pd-872,세교주유소,경기도 평택시 동삭로 224,37.0066724,127.090461,false,true,상시,1,1,2,false,false,2025-07-01
pd-873,평택항마린센타,경기도 평택시 포승읍 평택항만길 73,36.9576262,126.84835,false,true,상시,1,1,1,false,false,2025-07-01
pd-874,그린주유소,경기도 평택시 삼남로 359,37.05747,127.09404,false,true,상시,2,2,2,false,false,2025-07-01
pd-875,은실근린공원2,경기도 평택시 동삭동 219-9 일원,37.014122,127.090313,true,true,상시,1,2,4,true,true,2025-07-01
pd-876,교보생명빌딩,경기도 평택시 평택로 37,36.99077,127.08748,false,true,상시,1,2,2,false,false,2025-07-01
pd-877,금곡주유소,경기도 평택시 안중읍 서해로 1209,37.00104,126.9435,false,true,상시,2,1,2,false,false,2025-07-01
pd-878,㈜은십자직영현화주유소,경기도 평택시 안중읍 서해로 1256,37.0046903,126.946131,false,true,상시,1,1,1,false,false,2025-07-01
pd-879,평택축협 안중지점,경기도 평택시 안중읍 안현로서6길 36,36.9851281,126.925266,false,true,상시,2,2,1,false,false,2025-07-01
pd-880,서탄면주민센터 나동 2층,경기도 평택시 서탄면 금암2길 122,37.1082413,127.035332,false,true,(평일)09:00-18:00+(주말)09:00-18:00,2,3,2,false,true,2025-07-01
pd-881,팽성읍사무소 1층,경기도 평택시 팽성읍 동서촌로 89,36.9651766,127.062345,false,true,상시,2,2,2,true,false,2025-07-01
pd-882,남부문예회관,경기도 평택시 중앙로 277,36.991365,127.114059,true,true,(평일)09:00-22:00+(주말)09:00-22:00,19,24,24,true,false,2025-07-01
pd-883,중앙동 행정복지센터 3층,경기도 평택시 서정역로 16,37.0555584,127.056053,false,true,(평일)09:00-18:00+(주말)09:00-18:00,2,2,2,false,false,2025-07-01
pd-884,평택시외버스,경기도 평택시 평택로 31,36.990367,127.087864,false,true,상시,1,1,1,false,false,2025-07-01
pd-885,서평택IC셀프주유소,경기도 평택시 포승읍 불당길 130,36.9885524,126.865287,false,true,상시,2,2,1,true,false,2025-07-01
pd-886,원평 제1공영주차장,경기도 평택시 원평로 30 (평택동),36.9890821,127.085706,false,true,상시,1,2,2,true,false,2025-07-01
pd-887,평택시평택보건소 A동 2층,경기도 평택시 평택5로 56,36.9908957,127.111969,true,true,(평일)09:00-18:00+(주말)09:00-18:00,1,1,2,false,false,2025-07-01
pd-888,통복 공영주차장,경기도 평택시 평택1로 55 (통복동),36.9970416,127.087782,false,true,상시,1,1,2,true,false,2025-07-01
pd-889,경기도평택교육지원청 2층,경기도 평택시 평택1로 80,36.99917,127.08962,false,true,상시,2,2,2,false,false,2025-07-01
pd-890,청룡구일도주유소,경기도 평택시 만세로 1555,37.0257272,127.122237,false,true,상시,2,3,2,false,false,2025-07-01
pd-891,여성회관 1층,경기도 평택시 이충로 84-6,37.0644014,127.067465,false,true,상시,2,3,3,true,false,2025-07-01
pd-892,송탄보건소 4층,경기도 평택시 서정로 295,37.065714,127.066497,false,true,(평일)09:00-18:00+(주말)09:00-18:00,3,2,3,false,false,2025-07-01
pd-893,평택로컬푸드종합센터(1층),경기도 평택시 오성면 청오로 33-34 평택로컬푸드종합센터 1층,37.014978,126.983527,true,true,(평일)09:00-19:00+(주말)09:00-19:00,2,2,4,true,false,2025-07-01
pd-894,씨티은행 평택지점,경기도 평택시 평택로 17,36.9891064,127.088781,false,true,상시,1,1,2,false,false,2025-07-01
pd-895,신장쇼핑몰 공중화장실,경기도 평택시 중앙시장로 32,37.0796666,127.053716,true,true,상시,1,1,3,true,false,2025-07-01
pd-896,현곡근린공원,경기도 평택시 청북읍 현곡산단로93번길 49,37.0367492,126.942169,true,true,상시,2,3,3,true,false,2025-07-01
pd-897,경기남부수협 안중지점,경기도 평택시 안중읍 안중로 119,36.98891,126.9298,false,true,상시,2,2,2,false,false,2025-07-01
pd-898,합정 공영주차장,경기도 평택시 평택3로17번길 27(합정동),36.9909568,127.091173,true,true,상시,1,2,2,true,false,2025-07-01
pd-899,통복시장 고객센터,경기도 평택시 통복로 51,36.9967101,127.083244,true,true,상시,1,2,5,true,true,2025-07-01
pd-900,팽성보건지소 1층,경기도 평택시 팽성읍 팽성남산4길 6,36.9575998,127.059921,true,true,상시,2,2,2,false,false,2025-07-01
pd-901,만호주유소,경기도 평택시 포승읍 서동대로 771,36.95916,126.85609,false,true,상시,1,1,1,false,false,2025-07-01
pd-902,죽백근린공원,경기도 평택시 용이동 647-1,36.9981778,127.121324,true,true,상시,2,2,5,true,true,2025-07-01
pd-903,서탄 119 안전센타,경기도 평택시 서탄면 서탄로 241,37.1058403,127.037101,false,true,상시,1,1,1,false,true,2025-07-01
pd-904,이충 명성빌딩,경기도 평택시 경기대로 1286,37.059851,127.064983,false,true,상시,1,1,1,false,false,2025-07-01
pd-905,L2주유소(구:통복),경기도 평택시 평남로 253,36.99288,127.07734,false,true,상시,0,0,3,false,true,2025-07-01
pd-906,평택호쉼터,경기도 평택시 현덕면 평택호길 13,36.9144905,126.908596,false,true,상시,1,1,1,true,false,2025-07-01
pd-907,GS현대주유소,경기도 평택시 서동대로 3929,36.99623,127.14286,false,true,상시,1,1,1,false,false,2025-07-01
pd-908,농협중앙회 서정지점,경기도 평택시 서정로 229,37.06598,127.05869,false,true,(평일)09:00-18:00+(주말)09:00-18:00,2,2,2,false,false,2025-07-01
pd-909,여성회관 2층,경기도 평택시 이충로 84-6,37.0644014,127.067465,true,true,상시,2,4,5,false,false,2025-07-01
pd-910,평택시청 청사 화장실(본관 2층),경기도 평택시 경기대로 245,36.9922987,127.112525,false,true,(평일)09:00-18:00+(주말)09:00-18:00,5,5,5,false,false,2025-07-01
pd-911,부락산문화공원 간이,경기도 평택시 지산동1263,37.06479,127.06701,true,true,상시,0,1,2,true,false,2025-07-01
